{
"type": "FeatureCollection",
"name": "Dhoodigan",
"crs": { "type": "name", "properties": { "name": "urn:ogc:def:crs:OGC:1.3:CRS84" } },
"features": [
{ "type": "Feature", "properties": { "Name": "Lars", "description": "Lars" }, "geometry": { "type": "Point", "coordinates": [ 73.4384805, -0.3087288 ] } },
{ "type": "Feature", "properties": { "Name": "Dhinraath", "description": "Dhinraath" }, "geometry": { "type": "Point", "coordinates": [ 73.4385127, -0.3085571 ] } },
{ "type": "Feature", "properties": { "Name": "Blue Star", "description": "Blue Star" }, "geometry": { "type": "Point", "coordinates": [ 73.4384027, -0.3084525 ] } },
{ "type": "Feature", "properties": { "Name": "Blues", "description": "Blues" }, "geometry": { "type": "Point", "coordinates": [ 73.4382954, -0.3085169 ] } },
{ "type": "Feature", "properties": { "Name": "Corni House", "description": "Corni House" }, "geometry": { "type": "Point", "coordinates": [ 73.4382847, -0.3086537 ] } },
{ "type": "Feature", "properties": { "Name": "Levis", "description": "Levis" }, "geometry": { "type": "Point", "coordinates": [ 73.4380728, -0.308643 ] } },
{ "type": "Feature", "properties": { "Name": "Noofiya", "description": "Noofiya" }, "geometry": { "type": "Point", "coordinates": [ 73.4381023, -0.3084606 ] } },
{ "type": "Feature", "properties": { "Name": "Pink", "description": "Pink" }, "geometry": { "type": "Point", "coordinates": [ 73.4379843, -0.3084552 ] } },
{ "type": "Feature", "properties": { "Name": "White Sand", "description": "White Sand" }, "geometry": { "type": "Point", "coordinates": [ 73.4378421, -0.3084821 ] } },
{ "type": "Feature", "properties": { "Name": "Ash", "description": "Ash" }, "geometry": { "type": "Point", "coordinates": [ 73.4378368, -0.3086028 ] } },
{ "type": "Feature", "properties": { "Name": "Five Rose", "description": "Five Rose" }, "geometry": { "type": "Point", "coordinates": [ 73.4376436, -0.308584 ] } },
{ "type": "Feature", "properties": { "Name": "Eleesha", "description": "Eleesha" }, "geometry": { "type": "Point", "coordinates": [ 73.4376571, -0.3084177 ] } },
{ "type": "Feature", "properties": { "Name": "Dhil", "description": "Dhil" }, "geometry": { "type": "Point", "coordinates": [ 73.4375578, -0.3083774 ] } },
{ "type": "Feature", "properties": { "Name": "Jeneen", "description": "Jeneen" }, "geometry": { "type": "Point", "coordinates": [ 73.4374586, -0.3085625 ] } },
{ "type": "Feature", "properties": { "Name": "Etheena", "description": "Etheena" }, "geometry": { "type": "Point", "coordinates": [ 73.4374344, -0.308364 ] } },
{ "type": "Feature", "properties": { "Name": "Thilaha", "description": "Thilaha" }, "geometry": { "type": "Point", "coordinates": [ 73.4372172, -0.3084579 ] } },
{ "type": "Feature", "properties": { "Name": "Shiaan", "description": "Shiaan" }, "geometry": { "type": "Point", "coordinates": [ 73.4372869, -0.3083023 ] } },
{ "type": "Feature", "properties": { "Name": "New Rose", "description": "New Rose" }, "geometry": { "type": "Point", "coordinates": [ 73.4371501, -0.3082889 ] } },
{ "type": "Feature", "properties": { "Name": "Yunik", "description": "Yunik" }, "geometry": { "type": "Point", "coordinates": [ 73.4370267, -0.3082487 ] } },
{ "type": "Feature", "properties": { "Name": "Mezarin", "description": "Mezarin" }, "geometry": { "type": "Point", "coordinates": [ 73.4369892, -0.308415 ] } },
{ "type": "Feature", "properties": { "Name": "Dhoa Dil", "description": "Dhoa Dil" }, "geometry": { "type": "Point", "coordinates": [ 73.4370428, -0.3080583 ] } },
{ "type": "Feature", "properties": { "Name": "Lino", "description": "Lino" }, "geometry": { "type": "Point", "coordinates": [ 73.4372199, -0.3080797 ] } },
{ "type": "Feature", "properties": { "Name": "Queens", "description": "Queens" }, "geometry": { "type": "Point", "coordinates": [ 73.4373325, -0.3081173 ] } },
{ "type": "Feature", "properties": { "Name": "Shorty", "description": "Shorty" }, "geometry": { "type": "Point", "coordinates": [ 73.4374666, -0.3081387 ] } },
{ "type": "Feature", "properties": { "Name": "Ries", "description": "Ries" }, "geometry": { "type": "Point", "coordinates": [ 73.4377161, -0.3081629 ] } },
{ "type": "Feature", "properties": { "Name": "Hevaa", "description": "Hevaa" }, "geometry": { "type": "Point", "coordinates": [ 73.4375095, -0.308018 ] } },
{ "type": "Feature", "properties": { "Name": "Malsa", "description": "Malsa" }, "geometry": { "type": "Point", "coordinates": [ 73.4377241, -0.3080609 ] } },
{ "type": "Feature", "properties": { "Name": "Aavina", "description": "Aavina" }, "geometry": { "type": "Point", "coordinates": [ 73.4375256, -0.3078598 ] } },
{ "type": "Feature", "properties": { "Name": "Sangeeth", "description": "Sangeeth" }, "geometry": { "type": "Point", "coordinates": [ 73.4377375, -0.3078839 ] } },
{ "type": "Feature", "properties": { "Name": "New MS", "description": "New M S" }, "geometry": { "type": "Point", "coordinates": [ 73.4379655, -0.3078866 ] } },
{ "type": "Feature", "properties": { "Name": "Evy", "description": "Evy" }, "geometry": { "type": "Point", "coordinates": [ 73.4379441, -0.3080234 ] } },
{ "type": "Feature", "properties": { "Name": "Service", "description": "Service" }, "geometry": { "type": "Point", "coordinates": [ 73.4379092, -0.308187 ] } },
{ "type": "Feature", "properties": { "Name": "Neevlee", "description": "Neevlee" }, "geometry": { "type": "Point", "coordinates": [ 73.4381103, -0.3082192 ] } },
{ "type": "Feature", "properties": { "Name": "Ottaru", "description": "Ottaru" }, "geometry": { "type": "Point", "coordinates": [ 73.4381479, -0.3080958 ] } },
{ "type": "Feature", "properties": { "Name": "Leema", "description": "Leema" }, "geometry": { "type": "Point", "coordinates": [ 73.4381989, -0.3079671 ] } },
{ "type": "Feature", "properties": { "Name": "Action", "description": "Action" }, "geometry": { "type": "Point", "coordinates": [ 73.4383491, -0.307951 ] } },
{ "type": "Feature", "properties": { "Name": "Theeru", "description": "Theeru" }, "geometry": { "type": "Point", "coordinates": [ 73.4383357, -0.3081119 ] } },
{ "type": "Feature", "properties": { "Name": "Courage", "description": "Courage" }, "geometry": { "type": "Point", "coordinates": [ 73.4383142, -0.3082702 ] } },
{ "type": "Feature", "properties": { "Name": "Loom", "description": "Loom" }, "geometry": { "type": "Point", "coordinates": [ 73.4385261, -0.3083023 ] } },
{ "type": "Feature", "properties": { "Name": "Image", "description": "Image" }, "geometry": { "type": "Point", "coordinates": [ 73.4386119, -0.3080449 ] } },
{ "type": "Feature", "properties": { "Name": "Chaand", "description": "Chaand" }, "geometry": { "type": "Point", "coordinates": [ 73.4373915, -0.3078249 ] } },
{ "type": "Feature", "properties": { "Name": "Opal", "description": "Opal" }, "geometry": { "type": "Point", "coordinates": [ 73.4372789, -0.3078464 ] } },
{ "type": "Feature", "properties": { "Name": "Niraz", "description": "Niraz" }, "geometry": { "type": "Point", "coordinates": [ 73.4371608, -0.3078222 ] } },
{ "type": "Feature", "properties": { "Name": "Yuman", "description": "Yuman" }, "geometry": { "type": "Point", "coordinates": [ 73.438679, -0.3078303 ] } },
{ "type": "Feature", "properties": { "Name": "Matty", "description": "Matty" }, "geometry": { "type": "Point", "coordinates": [ 73.4384161, -0.3077847 ] } },
{ "type": "Feature", "properties": { "Name": "Shaany", "description": "Shany" }, "geometry": { "type": "Point", "coordinates": [ 73.4383867, -0.3076372 ] } },
{ "type": "Feature", "properties": { "Name": "Bencho House", "description": "Bencho House" }, "geometry": { "type": "Point", "coordinates": [ 73.4384134, -0.3074977 ] } },
{ "type": "Feature", "properties": { "Name": "Dial", "description": "Dial" }, "geometry": { "type": "Point", "coordinates": [ 73.4386388, -0.3075889 ] } },
{ "type": "Feature", "properties": { "Name": "Miares", "description": "Miares" }, "geometry": { "type": "Point", "coordinates": [ 73.4386978, -0.3074762 ] } },
{ "type": "Feature", "properties": { "Name": "Seek", "description": "Seek" }, "geometry": { "type": "Point", "coordinates": [ 73.4382311, -0.3077364 ] } },
{ "type": "Feature", "properties": { "Name": "Sivaa", "description": "Siva" }, "geometry": { "type": "Point", "coordinates": [ 73.4382471, -0.3075782 ] } },
{ "type": "Feature", "properties": { "Name": "Coral", "description": "Koral" }, "geometry": { "type": "Point", "coordinates": [ 73.4382659, -0.3074467 ] } },
{ "type": "Feature", "properties": { "Name": "Livaa", "description": "Livaa" }, "geometry": { "type": "Point", "coordinates": [ 73.438038, -0.3073877 ] } },
{ "type": "Feature", "properties": { "Name": "Rihidhoadhi", "description": "Rihidhoadhi" }, "geometry": { "type": "Point", "coordinates": [ 73.4380245, -0.3072348 ] } },
{ "type": "Feature", "properties": { "Name": "Highvakaro", "description": "Highvakaro" }, "geometry": { "type": "Point", "coordinates": [ 73.4381962, -0.3072295 ] } },
{ "type": "Feature", "properties": { "Name": "Ibiza", "description": "Ibiza" }, "geometry": { "type": "Point", "coordinates": [ 73.4381264, -0.3070658 ] } },
{ "type": "Feature", "properties": { "Name": "Blue Coral", "description": "Blue Coral" }, "geometry": { "type": "Point", "coordinates": [ 73.4381399, -0.3068862 ] } },
{ "type": "Feature", "properties": { "Name": "Garden Villa", "description": "Graden Villa" }, "geometry": { "type": "Point", "coordinates": [ 73.4376973, -0.3070068 ] } },
{ "type": "Feature", "properties": { "Name": "Shark", "description": "Shark" }, "geometry": { "type": "Point", "coordinates": [ 73.4377295, -0.3068915 ] } },
{ "type": "Feature", "properties": { "Name": "Maleesha", "description": "Maleesha" }, "geometry": { "type": "Point", "coordinates": [ 73.4377509, -0.3067655 ] } },
{ "type": "Feature", "properties": { "Name": "Shine", "description": "Shine" }, "geometry": { "type": "Point", "coordinates": [ 73.437936, -0.3067762 ] } },
{ "type": "Feature", "properties": { "Name": "New Port", "description": "New Port" }, "geometry": { "type": "Point", "coordinates": [ 73.437928, -0.3068888 ] } },
{ "type": "Feature", "properties": { "Name": "Lovepark", "description": "Lovepark" }, "geometry": { "type": "Point", "coordinates": [ 73.4379119, -0.3069934 ] } },
{ "type": "Feature", "properties": { "Name": "FSC", "description": null }, "geometry": { "type": "Point", "coordinates": [ 73.4376785, -0.3071597 ] } },
{ "type": "Feature", "properties": { "Name": "City", "description": "City" }, "geometry": { "type": "Point", "coordinates": [ 73.4378824, -0.3071892 ] } },
{ "type": "Feature", "properties": { "Name": "Meeru", "description": "Meeru" }, "geometry": { "type": "Point", "coordinates": [ 73.4380406, -0.3075326 ] } },
{ "type": "Feature", "properties": { "Name": "Faththia", "description": "Faththia" }, "geometry": { "type": "Point", "coordinates": [ 73.4380272, -0.3076694 ] } },
{ "type": "Feature", "properties": { "Name": "AA-Ali", "description": "AA-Ali" }, "geometry": { "type": "Point", "coordinates": [ 73.4371287, -0.3084418 ] } },
{ "type": "Feature", "properties": { "Name": "Evening Star", "description": "Evening Star" }, "geometry": { "type": "Point", "coordinates": [ 73.4366834, -0.3084927 ] } },
{ "type": "Feature", "properties": { "Name": "Zuvaari", "description": "Zuvaari" }, "geometry": { "type": "Point", "coordinates": [ 73.4367505, -0.3083292 ] } },
{ "type": "Feature", "properties": { "Name": "Hariyaaf", "description": "Hariyaaf" }, "geometry": { "type": "Point", "coordinates": [ 73.4365815, -0.3082809 ] } },
{ "type": "Feature", "properties": { "Name": "Highway Inn", "description": "Highway Inn" }, "geometry": { "type": "Point", "coordinates": [ 73.4365413, -0.3084633 ] } },
{ "type": "Feature", "properties": { "Name": "Chorus", "description": "Chorus" }, "geometry": { "type": "Point", "coordinates": [ 73.4363374, -0.3084311 ] } },
{ "type": "Feature", "properties": { "Name": "Sent", "description": "Sent" }, "geometry": { "type": "Point", "coordinates": [ 73.4363508, -0.3082997 ] } },
{ "type": "Feature", "properties": { "Name": "Ray Light", "description": "Ray Light" }, "geometry": { "type": "Point", "coordinates": [ 73.4363723, -0.3081253 ] } },
{ "type": "Feature", "properties": { "Name": "Aariya", "description": "Aariya" }, "geometry": { "type": "Point", "coordinates": [ 73.4361604, -0.308423 ] } },
{ "type": "Feature", "properties": { "Name": "Shaamaa Villa", "description": null }, "geometry": { "type": "Point", "coordinates": [ 73.4366003, -0.3081334 ] } },
{ "type": "Feature", "properties": { "Name": "Angel", "description": "Angel" }, "geometry": { "type": "Point", "coordinates": [ 73.43678, -0.3081387 ] } },
{ "type": "Feature", "properties": { "Name": "Rose Leef", "description": "Rose Leef" }, "geometry": { "type": "Point", "coordinates": [ 73.4368309, -0.3080073 ] } },
{ "type": "Feature", "properties": { "Name": "Hoara", "description": "Hoara" }, "geometry": { "type": "Point", "coordinates": [ 73.4368283, -0.3078652 ] } },
{ "type": "Feature", "properties": { "Name": "Ihige", "description": "Ihige" }, "geometry": { "type": "Point", "coordinates": [ 73.4368819, -0.3077284 ] } },
{ "type": "Feature", "properties": { "Name": "Wells", "description": "Wells" }, "geometry": { "type": "Point", "coordinates": [ 73.4366914, -0.3077069 ] } },
{ "type": "Feature", "properties": { "Name": "Rainbow", "description": "Rainbow" }, "geometry": { "type": "Point", "coordinates": [ 73.4366137, -0.3079858 ] } },
{ "type": "Feature", "properties": { "Name": "Giraasse", "description": "Giraasse" }, "geometry": { "type": "Point", "coordinates": [ 73.4364742, -0.3078652 ] } },
{ "type": "Feature", "properties": { "Name": "Zeynaa", "description": "Zeynaa" }, "geometry": { "type": "Point", "coordinates": [ 73.4363508, -0.3078678 ] } },
{ "type": "Feature", "properties": { "Name": "Dhahana", "description": "Dhahana" }, "geometry": { "type": "Point", "coordinates": [ 73.4361926, -0.3079081 ] } },
{ "type": "Feature", "properties": { "Name": "Michigan", "description": "Michigan" }, "geometry": { "type": "Point", "coordinates": [ 73.4365091, -0.3076586 ] } },
{ "type": "Feature", "properties": { "Name": "Hoadin", "description": "Hoadin" }, "geometry": { "type": "Point", "coordinates": [ 73.436316, -0.3076828 ] } },
{ "type": "Feature", "properties": { "Name": "Kinaaz", "description": "Kinaaz" }, "geometry": { "type": "Point", "coordinates": [ 73.4361979, -0.3076881 ] } },
{ "type": "Feature", "properties": { "Name": "Eeden", "description": "Eeden" }, "geometry": { "type": "Point", "coordinates": [ 73.4361282, -0.3077364 ] } },
{ "type": "Feature", "properties": { "Name": "Rana", "description": "Rana" }, "geometry": { "type": "Point", "coordinates": [ 73.435978, -0.3077364 ] } },
{ "type": "Feature", "properties": { "Name": "Unisun", "description": "Unisun" }, "geometry": { "type": "Point", "coordinates": [ 73.4360397, -0.3079617 ] } },
{ "type": "Feature", "properties": { "Name": "Jordan\n", "description": "Jordan" }, "geometry": { "type": "Point", "coordinates": [ 73.4358761, -0.307782 ] } },
{ "type": "Feature", "properties": { "Name": "Zefia", "description": "Zefia" }, "geometry": { "type": "Point", "coordinates": [ 73.4359217, -0.307959 ] } },
{ "type": "Feature", "properties": { "Name": "Miley", "description": "Miley" }, "geometry": { "type": "Point", "coordinates": [ 73.4358171, -0.3080127 ] } },
{ "type": "Feature", "properties": { "Name": "Veer\n", "description": "Veer" }, "geometry": { "type": "Point", "coordinates": [ 73.4357554, -0.3078115 ] } },
{ "type": "Feature", "properties": { "Name": "Fine", "description": "Fine" }, "geometry": { "type": "Point", "coordinates": [ 73.4355944, -0.3078866 ] } },
{ "type": "Feature", "properties": { "Name": "Shallow", "description": "Shallow" }, "geometry": { "type": "Point", "coordinates": [ 73.43564, -0.3080609 ] } },
{ "type": "Feature", "properties": { "Name": "Yukas", "description": "Yukas" }, "geometry": { "type": "Point", "coordinates": [ 73.4350017, -0.3080932 ] } },
{ "type": "Feature", "properties": { "Name": "Raakani", "description": "Raakani" }, "geometry": { "type": "Point", "coordinates": [ 73.4352538, -0.3079912 ] } },
{ "type": "Feature", "properties": { "Name": "Gaas", "description": "Gaas" }, "geometry": { "type": "Point", "coordinates": [ 73.4354228, -0.3079215 ] } },
{ "type": "Feature", "properties": { "Name": "Cirrus", "description": "Cirrus" }, "geometry": { "type": "Point", "coordinates": [ 73.4348649, -0.3081655 ] } },
{ "type": "Feature", "properties": { "Name": "Lilak", "description": "Lilak" }, "geometry": { "type": "Point", "coordinates": [ 73.4355032, -0.3081039 ] } },
{ "type": "Feature", "properties": { "Name": "Beyhlo", "description": "Beyhlo" }, "geometry": { "type": "Point", "coordinates": [ 73.4354228, -0.3081334 ] } },
{ "type": "Feature", "properties": { "Name": "Revish", "description": "Revish" }, "geometry": { "type": "Point", "coordinates": [ 73.435117, -0.3080663 ] } },
{ "type": "Feature", "properties": { "Name": "Niami", "description": "Niyami" }, "geometry": { "type": "Point", "coordinates": [ 73.4360987, -0.3074441 ] } },
{ "type": "Feature", "properties": { "Name": "Viviaana", "description": "Viviaana" }, "geometry": { "type": "Point", "coordinates": [ 73.4359565, -0.3075111 ] } },
{ "type": "Feature", "properties": { "Name": "Port Light", "description": "Port Light" }, "geometry": { "type": "Point", "coordinates": [ 73.4358224, -0.3075218 ] } },
{ "type": "Feature", "properties": { "Name": "Fanvah", "description": "Fanvah" }, "geometry": { "type": "Point", "coordinates": [ 73.4357098, -0.3075969 ] } },
{ "type": "Feature", "properties": { "Name": "Linz", "description": "Linz" }, "geometry": { "type": "Point", "coordinates": [ 73.4355596, -0.3076264 ] } },
{ "type": "Feature", "properties": { "Name": "Lake", "description": "Lake" }, "geometry": { "type": "Point", "coordinates": [ 73.4353879, -0.3076854 ] } },
{ "type": "Feature", "properties": { "Name": "Leeds", "description": "Leeds" }, "geometry": { "type": "Point", "coordinates": [ 73.4351653, -0.3077471 ] } },
{ "type": "Feature", "properties": { "Name": "Breeze", "description": "Breez" }, "geometry": { "type": "Point", "coordinates": [ 73.4349319, -0.3078303 ] } },
{ "type": "Feature", "properties": { "Name": "Cute", "description": "Cute" }, "geometry": { "type": "Point", "coordinates": [ 73.434822, -0.3079134 ] } },
{ "type": "Feature", "properties": { "Name": "Glad", "description": "Glad" }, "geometry": { "type": "Point", "coordinates": [ 73.4346852, -0.3079403 ] } },
{ "type": "Feature", "properties": { "Name": "Fahani", "description": "Fahani" }, "geometry": { "type": "Point", "coordinates": [ 73.434653, -0.3078222 ] } },
{ "type": "Feature", "properties": { "Name": "Nash Will", "description": "Nash Will" }, "geometry": { "type": "Point", "coordinates": [ 73.4352243, -0.3075862 ] } },
{ "type": "Feature", "properties": { "Name": "Maakuri", "description": "Maakuri" }, "geometry": { "type": "Point", "coordinates": [ 73.4349293, -0.3076372 ] } },
{ "type": "Feature", "properties": { "Name": "SAS", "description": "SAS" }, "geometry": { "type": "Point", "coordinates": [ 73.4344786, -0.3079778 ] } },
{ "type": "Feature", "properties": { "Name": "Dhoos", "description": "Dhoos" }, "geometry": { "type": "Point", "coordinates": [ 73.4344572, -0.3077525 ] } },
{ "type": "Feature", "properties": { "Name": "Niara", "description": "Niara" }, "geometry": { "type": "Point", "coordinates": [ 73.4342238, -0.3078142 ] } },
{ "type": "Feature", "properties": { "Name": "Milna", "description": "Milna" }, "geometry": { "type": "Point", "coordinates": [ 73.4342399, -0.3079939 ] } },
{ "type": "Feature", "properties": { "Name": "Mehendhi", "description": "Mehendhi" }, "geometry": { "type": "Point", "coordinates": [ 73.4340736, -0.3080288 ] } },
{ "type": "Feature", "properties": { "Name": "Hudhu", "description": "Hudhu" }, "geometry": { "type": "Point", "coordinates": [ 73.4340522, -0.3078625 ] } },
{ "type": "Feature", "properties": { "Name": "Shell", "description": "Shell" }, "geometry": { "type": "Point", "coordinates": [ 73.433851, -0.3080448 ] } },
{ "type": "Feature", "properties": { "Name": "Dhiviya", "description": "Dhiviya" }, "geometry": { "type": "Point", "coordinates": [ 73.4338537, -0.3079027 ] } },
{ "type": "Feature", "properties": { "Name": "Vizul", "description": "Vizul" }, "geometry": { "type": "Point", "coordinates": [ 73.4336767, -0.308077 ] } },
{ "type": "Feature", "properties": { "Name": "Yuni", "description": "Yuni" }, "geometry": { "type": "Point", "coordinates": [ 73.4334835, -0.3080958 ] } },
{ "type": "Feature", "properties": { "Name": "Vilna", "description": "Vilna" }, "geometry": { "type": "Point", "coordinates": [ 73.4332716, -0.3081092 ] } },
{ "type": "Feature", "properties": { "Name": "Robin", "description": "Robin" }, "geometry": { "type": "Point", "coordinates": [ 73.4330276, -0.3081361 ] } },
{ "type": "Feature", "properties": { "Name": "Onix", "description": "Onix" }, "geometry": { "type": "Point", "coordinates": [ 73.4328881, -0.3081441 ] } },
{ "type": "Feature", "properties": { "Name": "Never", "description": "Never" }, "geometry": { "type": "Point", "coordinates": [ 73.4332877, -0.3079805 ] } },
{ "type": "Feature", "properties": { "Name": "Glam", "description": "Glam" }, "geometry": { "type": "Point", "coordinates": [ 73.4331402, -0.3079644 ] } },
{ "type": "Feature", "properties": { "Name": "Share", "description": "Share" }, "geometry": { "type": "Point", "coordinates": [ 73.4330007, -0.3079188 ] } },
{ "type": "Feature", "properties": { "Name": "Meek", "description": "Meek" }, "geometry": { "type": "Point", "coordinates": [ 73.4328505, -0.3079242 ] } },
{ "type": "Feature", "properties": { "Name": "Happy Rest", "description": "Happy Rest" }, "geometry": { "type": "Point", "coordinates": [ 73.4327808, -0.3076318 ] } },
{ "type": "Feature", "properties": { "Name": "Willson", "description": "Willson" }, "geometry": { "type": "Point", "coordinates": [ 73.4328881, -0.3077069 ] } },
{ "type": "Feature", "properties": { "Name": "Dhenoo", "description": "Dhenoo" }, "geometry": { "type": "Point", "coordinates": [ 73.4330973, -0.3077498 ] } },
{ "type": "Feature", "properties": { "Name": "Adore", "description": "Ado" }, "geometry": { "type": "Point", "coordinates": [ 73.4332287, -0.3077659 ] } },
{ "type": "Feature", "properties": { "Name": "Samandharu", "description": "Samandharu" }, "geometry": { "type": "Point", "coordinates": [ 73.4334192, -0.3077632 ] } },
{ "type": "Feature", "properties": { "Name": "Zeeshaan", "description": "Zeeshaan" }, "geometry": { "type": "Point", "coordinates": [ 73.4336525, -0.3077418 ] } },
{ "type": "Feature", "properties": { "Name": "Esent", "description": "Esent" }, "geometry": { "type": "Point", "coordinates": [ 73.4338242, -0.3076908 ] } },
{ "type": "Feature", "properties": { "Name": "Ranvavi", "description": "Ranvavi" }, "geometry": { "type": "Point", "coordinates": [ 73.4383169, -0.3072885 ] } },
{ "type": "Feature", "properties": { "Name": "Gold", "description": "Gold" }, "geometry": { "type": "Point", "coordinates": [ 73.4385502, -0.3072429 ] } },
{ "type": "Feature", "properties": { "Name": "New Velly", "description": "New Veli" }, "geometry": { "type": "Point", "coordinates": [ 73.4383062, -0.3070418 ] } },
{ "type": "Feature", "properties": { "Name": "New Road", "description": "New Veli" }, "geometry": { "type": "Point", "coordinates": [ 73.4384162, -0.30698 ] } },
{ "type": "Feature", "properties": { "Name": "Veen", "description": "Veen" }, "geometry": { "type": "Point", "coordinates": [ 73.4386924, -0.3071329 ] } },
{ "type": "Feature", "properties": { "Name": "Ever Fresh", "description": "Ever Fresh" }, "geometry": { "type": "Point", "coordinates": [ 73.4386361, -0.3070471 ] } },
{ "type": "Feature", "properties": { "Name": "Simiz", "description": "Simiz" }, "geometry": { "type": "Point", "coordinates": [ 73.4386253, -0.3069237 ] } },
{ "type": "Feature", "properties": { "Name": "Zinc", "description": "Zink" }, "geometry": { "type": "Point", "coordinates": [ 73.4388936, -0.3070391 ] } },
{ "type": "Feature", "properties": { "Name": "Kevin", "description": "Kevin" }, "geometry": { "type": "Point", "coordinates": [ 73.4387675, -0.3068164 ] } },
{ "type": "Feature", "properties": { "Name": "Sinaman", "description": "Sinaman" }, "geometry": { "type": "Point", "coordinates": [ 73.4389096, -0.3067467 ] } },
{ "type": "Feature", "properties": { "Name": "Shaaee", "description": "Shaaee" }, "geometry": { "type": "Point", "coordinates": [ 73.4390196, -0.3067064 ] } },
{ "type": "Feature", "properties": { "Name": "A One", "description": "A One" }, "geometry": { "type": "Point", "coordinates": [ 73.4391242, -0.3066501 ] } },
{ "type": "Feature", "properties": { "Name": "Irvaa", "description": "Irvaa" }, "geometry": { "type": "Point", "coordinates": [ 73.4392154, -0.3067413 ] } },
{ "type": "Feature", "properties": { "Name": "Anaan", "description": "Anaan" }, "geometry": { "type": "Point", "coordinates": [ 73.4392744, -0.3069157 ] } },
{ "type": "Feature", "properties": { "Name": "Rileaf", "description": "Rileaf" }, "geometry": { "type": "Point", "coordinates": [ 73.4391216, -0.3069451 ] } },
{ "type": "Feature", "properties": { "Name": "Dhevina", "description": "Dhevina" }, "geometry": { "type": "Point", "coordinates": [ 73.4390169, -0.3069693 ] } },
{ "type": "Feature", "properties": { "Name": "New Reef", "description": "New Reef" }, "geometry": { "type": "Point", "coordinates": [ 73.4383035, -0.3068352 ] } },
{ "type": "Feature", "properties": { "Name": "River Land", "description": "River Land" }, "geometry": { "type": "Point", "coordinates": [ 73.4382471, -0.3067118 ] } },
{ "type": "Feature", "properties": { "Name": "Lilag", "description": "Lilag" }, "geometry": { "type": "Point", "coordinates": [ 73.4386093, -0.3067574 ] } },
{ "type": "Feature", "properties": { "Name": "Stella", "description": "Stella" }, "geometry": { "type": "Point", "coordinates": [ 73.4384698, -0.3066206 ] } },
{ "type": "Feature", "properties": { "Name": "Hudhugaa", "description": "Hudhugaa" }, "geometry": { "type": "Point", "coordinates": [ 73.438679, -0.3065107 ] } },
{ "type": "Feature", "properties": { "Name": "New Life", "description": "New Life" }, "geometry": { "type": "Point", "coordinates": [ 73.4387943, -0.306398 ] } },
{ "type": "Feature", "properties": { "Name": "Elight", "description": null }, "geometry": { "type": "Point", "coordinates": [ 73.4389821, -0.3063309 ] } },
{ "type": "Feature", "properties": { "Name": "Shaabu", "description": "Shaabu" }, "geometry": { "type": "Point", "coordinates": [ 73.4390572, -0.3064758 ] } },
{ "type": "Feature", "properties": { "Name": "Mareena Manzil", "description": "Mareena Manzil" }, "geometry": { "type": "Point", "coordinates": [ 73.4389365, -0.3065428 ] } },
{ "type": "Feature", "properties": { "Name": "Wazan", "description": null }, "geometry": { "type": "Point", "coordinates": [ 73.4387675, -0.3066179 ] } },
{ "type": "Feature", "properties": { "Name": "Oivaru", "description": "Oivaru" }, "geometry": { "type": "Point", "coordinates": [ 73.4388828, -0.306103 ] } },
{ "type": "Feature", "properties": { "Name": "New Ray", "description": "New Ray" }, "geometry": { "type": "Point", "coordinates": [ 73.439025, -0.3060761 ] } },
{ "type": "Feature", "properties": { "Name": "Yaman", "description": "Yaman" }, "geometry": { "type": "Point", "coordinates": [ 73.4388024, -0.3059796 ] } },
{ "type": "Feature", "properties": { "Name": "Milet", "description": "Milet" }, "geometry": { "type": "Point", "coordinates": [ 73.4389526, -0.3059662 ] } },
{ "type": "Feature", "properties": { "Name": "Reason", "description": "Reason" }, "geometry": { "type": "Point", "coordinates": [ 73.4388881, -0.305765 ] } },
{ "type": "Feature", "properties": { "Name": "Blue Asseyri", "description": "Blue Asseyri" }, "geometry": { "type": "Point", "coordinates": [ 73.4386092, -0.3058213 ] } },
{ "type": "Feature", "properties": { "Name": "Dhonfehige", "description": null }, "geometry": { "type": "Point", "coordinates": [ 73.4384564, -0.3058616 ] } },
{ "type": "Feature", "properties": { "Name": "Dhekuri", "description": null }, "geometry": { "type": "Point", "coordinates": [ 73.4381345, -0.3059957 ] } },
{ "type": "Feature", "properties": { "Name": "Tharimaage", "description": "Tharimaage" }, "geometry": { "type": "Point", "coordinates": [ 73.4381881, -0.3062022 ] } },
{ "type": "Feature", "properties": { "Name": "Zamaaneege", "description": "Zamaaneege" }, "geometry": { "type": "Point", "coordinates": [ 73.4384966, -0.3061083 ] } },
{ "type": "Feature", "properties": { "Name": "Bikkosheege", "description": "Bikkosheege" }, "geometry": { "type": "Point", "coordinates": [ 73.4384671, -0.306347 ] } },
{ "type": "Feature", "properties": { "Name": "Maadhooge", "description": null }, "geometry": { "type": "Point", "coordinates": [ 73.438274, -0.3064409 ] } },
{ "type": "Feature", "properties": { "Name": "Irufuheyge", "description": "Irufuheyge" }, "geometry": { "type": "Point", "coordinates": [ 73.4380943, -0.3064999 ] } },
{ "type": "Feature", "properties": { "Name": "Babukeyovaluge", "description": "Babukeyovaluge" }, "geometry": { "type": "Point", "coordinates": [ 73.4379816, -0.3062451 ] } },
{ "type": "Feature", "properties": { "Name": "Almaz", "description": null }, "geometry": { "type": "Point", "coordinates": [ 73.4379575, -0.3061673 ] } },
{ "type": "Feature", "properties": { "Name": "Olender", "description": "Olender" }, "geometry": { "type": "Point", "coordinates": [ 73.4379494, -0.3060869 ] } },
{ "type": "Feature", "properties": { "Name": "Fahimagu", "description": "Fahimagu" }, "geometry": { "type": "Point", "coordinates": [ 73.437928, -0.3059957 ] } },
{ "type": "Feature", "properties": { "Name": "Raastha", "description": "Raastha" }, "geometry": { "type": "Point", "coordinates": [ 73.4379199, -0.3059152 ] } },
{ "type": "Feature", "properties": { "Name": "Iribedhelige", "description": "Iribedhelige" }, "geometry": { "type": "Point", "coordinates": [ 73.437928, -0.3058482 ] } },
{ "type": "Feature", "properties": { "Name": "Milano", "description": "Milano" }, "geometry": { "type": "Point", "coordinates": [ 73.4381318, -0.3058374 ] } },
{ "type": "Feature", "properties": { "Name": "Kumunzaanige", "description": "Kumunzaanige" }, "geometry": { "type": "Point", "coordinates": [ 73.4383973, -0.305757 ] } },
{ "type": "Feature", "properties": { "Name": "Nazaru", "description": "Nazaru" }, "geometry": { "type": "Point", "coordinates": [ 73.4385315, -0.3056363 ] } },
{ "type": "Feature", "properties": { "Name": "Kinbigasdhoshuge", "description": "Kinbigasdhoshuge" }, "geometry": { "type": "Point", "coordinates": [ 73.4386602, -0.3053922 ] } },
{ "type": "Feature", "properties": { "Name": "Rukhaamuge", "description": "Rukhaamuge" }, "geometry": { "type": "Point", "coordinates": [ 73.4385958, -0.3051964 ] } },
{ "type": "Feature", "properties": { "Name": "Jeydu", "description": "Jeydu" }, "geometry": { "type": "Point", "coordinates": [ 73.4383464, -0.3053922 ] } },
{ "type": "Feature", "properties": { "Name": "Ever Last", "description": "Ever Last" }, "geometry": { "type": "Point", "coordinates": [ 73.4380299, -0.3055075 ] } },
{ "type": "Feature", "properties": { "Name": "Bilammaage", "description": "Bilammaage" }, "geometry": { "type": "Point", "coordinates": [ 73.4378636, -0.3055692 ] } },
{ "type": "Feature", "properties": { "Name": "Shaanee Villa", "description": null }, "geometry": { "type": "Point", "coordinates": [ 73.4377456, -0.3052876 ] } },
{ "type": "Feature", "properties": { "Name": "Malgandige", "description": "Malgandige" }, "geometry": { "type": "Point", "coordinates": [ 73.4380406, -0.3051696 ] } },
{ "type": "Feature", "properties": { "Name": "Dhaairaa", "description": "Dhaairaa" }, "geometry": { "type": "Point", "coordinates": [ 73.4375954, -0.3051347 ] } },
{ "type": "Feature", "properties": { "Name": "Adhunge", "description": "Adhunge" }, "geometry": { "type": "Point", "coordinates": [ 73.4378394, -0.3050194 ] } },
{ "type": "Feature", "properties": { "Name": "Blue Moon", "description": "Blue Moon" }, "geometry": { "type": "Point", "coordinates": [ 73.4377509, -0.3049121 ] } },
{ "type": "Feature", "properties": { "Name": "Welcome Villa", "description": null }, "geometry": { "type": "Point", "coordinates": [ 73.4378475, -0.3047887 ] } },
{ "type": "Feature", "properties": { "Name": "D.S.C", "description": null }, "geometry": { "type": "Point", "coordinates": [ 73.4380031, -0.3046492 ] } },
{ "type": "Feature", "properties": { "Name": "Iris", "description": null }, "geometry": { "type": "Point", "coordinates": [ 73.4380835, -0.3047216 ] } },
{ "type": "Feature", "properties": { "Name": "Chabeyleemaage", "description": null }, "geometry": { "type": "Point", "coordinates": [ 73.4381989, -0.3047565 ] } },
{ "type": "Feature", "properties": { "Name": "Rado", "description": null }, "geometry": { "type": "Point", "coordinates": [ 73.437936, -0.3044883 ] } },
{ "type": "Feature", "properties": { "Name": "Daylightvilla", "description": null }, "geometry": { "type": "Point", "coordinates": [ 73.4377027, -0.3045312 ] } },
{ "type": "Feature", "properties": { "Name": "Reegal Kent", "description": null }, "geometry": { "type": "Point", "coordinates": [ 73.4376973, -0.3047056 ] } },
{ "type": "Feature", "properties": { "Name": "Goldengate", "description": null }, "geometry": { "type": "Point", "coordinates": [ 73.4374827, -0.3049765 ] } },
{ "type": "Feature", "properties": { "Name": "Maaholhidhandu", "description": null }, "geometry": { "type": "Point", "coordinates": [ 73.4373942, -0.304837 ] } },
{ "type": "Feature", "properties": { "Name": "Townvilla", "description": null }, "geometry": { "type": "Point", "coordinates": [ 73.437244, -0.3046278 ] } },
{ "type": "Feature", "properties": { "Name": "Heeraage", "description": null }, "geometry": { "type": "Point", "coordinates": [ 73.4375632, -0.3043193 ] } },
{ "type": "Feature", "properties": { "Name": "Zeeniya", "description": null }, "geometry": { "type": "Point", "coordinates": [ 73.4371287, -0.3045044 ] } },
{ "type": "Feature", "properties": { "Name": "Unakedege", "description": "Unakedege" }, "geometry": { "type": "Point", "coordinates": [ 73.437134, -0.304322 ] } },
{ "type": "Feature", "properties": { "Name": "Dhafi\n", "description": "Dhafi" }, "geometry": { "type": "Point", "coordinates": [ 73.4369972, -0.3042415 ] } },
{ "type": "Feature", "properties": { "Name": "Vitoria", "description": null }, "geometry": { "type": "Point", "coordinates": [ 73.4371743, -0.3041021 ] } },
{ "type": "Feature", "properties": { "Name": "Aivin", "description": "Aivin" }, "geometry": { "type": "Point", "coordinates": [ 73.4372333, -0.3039921 ] } },
{ "type": "Feature", "properties": { "Name": "Vinagando", "description": "Vinagando" }, "geometry": { "type": "Point", "coordinates": [ 73.4374157, -0.3039224 ] } },
{ "type": "Feature", "properties": { "Name": "Dhivili", "description": null }, "geometry": { "type": "Point", "coordinates": [ 73.4370857, -0.3038526 ] } },
{ "type": "Feature", "properties": { "Name": "Miskihdhoshuge", "description": "Miskihdhoshuge" }, "geometry": { "type": "Point", "coordinates": [ 73.4369785, -0.3039841 ] } },
{ "type": "Feature", "properties": { "Name": "New Star", "description": null }, "geometry": { "type": "Point", "coordinates": [ 73.4369302, -0.3041316 ] } },
{ "type": "Feature", "properties": { "Name": "Thaal", "description": null }, "geometry": { "type": "Point", "coordinates": [ 73.4368631, -0.303976 ] } },
{ "type": "Feature", "properties": { "Name": "Kaarigandige", "description": null }, "geometry": { "type": "Point", "coordinates": [ 73.4367424, -0.3038687 ] } },
{ "type": "Feature", "properties": { "Name": "Alba", "description": null }, "geometry": { "type": "Point", "coordinates": [ 73.4366459, -0.3037105 ] } },
{ "type": "Feature", "properties": { "Name": "Vienaa", "description": null }, "geometry": { "type": "Point", "coordinates": [ 73.437016, -0.3035629 ] } },
{ "type": "Feature", "properties": { "Name": "Sivaaru", "description": null }, "geometry": { "type": "Point", "coordinates": [ 73.4371179, -0.3034235 ] } },
{ "type": "Feature", "properties": { "Name": "Mathifalage", "description": null }, "geometry": { "type": "Point", "coordinates": [ 73.4370133, -0.3033055 ] } },
{ "type": "Feature", "properties": { "Name": "Lansimooge", "description": null }, "geometry": { "type": "Point", "coordinates": [ 73.4368256, -0.3031982 ] } },
{ "type": "Feature", "properties": { "Name": "Sea House", "description": null }, "geometry": { "type": "Point", "coordinates": [ 73.4369007, -0.3031499 ] } },
{ "type": "Feature", "properties": { "Name": "Greenland", "description": null }, "geometry": { "type": "Point", "coordinates": [ 73.4366995, -0.3034878 ] } },
{ "type": "Feature", "properties": { "Name": "Andhaleebuge", "description": null }, "geometry": { "type": "Point", "coordinates": [ 73.4364527, -0.3034744 ] } },
{ "type": "Feature", "properties": { "Name": "Keyofinige", "description": null }, "geometry": { "type": "Point", "coordinates": [ 73.4373191, -0.3050891 ] } },
{ "type": "Feature", "properties": { "Name": "Goverflower", "description": null }, "geometry": { "type": "Point", "coordinates": [ 73.4371582, -0.3052795 ] } },
{ "type": "Feature", "properties": { "Name": "Pianaage", "description": null }, "geometry": { "type": "Point", "coordinates": [ 73.4368148, -0.30536 ] } },
{ "type": "Feature", "properties": { "Name": "Aaraamuge", "description": null }, "geometry": { "type": "Point", "coordinates": [ 73.4369972, -0.3049925 ] } },
{ "type": "Feature", "properties": { "Name": "Edhuruge", "description": null }, "geometry": { "type": "Point", "coordinates": [ 73.4367585, -0.3048692 ] } },
{ "type": "Feature", "properties": { "Name": "Niyaa", "description": null }, "geometry": { "type": "Point", "coordinates": [ 73.436729, -0.304668 ] } },
{ "type": "Feature", "properties": { "Name": "Dheriyaa", "description": null }, "geometry": { "type": "Point", "coordinates": [ 73.4370643, -0.3047431 ] } },
{ "type": "Feature", "properties": { "Name": "Fiyaathoshige", "description": null }, "geometry": { "type": "Point", "coordinates": [ 73.4369382, -0.304609 ] } },
{ "type": "Feature", "properties": { "Name": "Chainage", "description": null }, "geometry": { "type": "Point", "coordinates": [ 73.4365198, -0.3046814 ] } },
{ "type": "Feature", "properties": { "Name": "Dhihgaamaage", "description": null }, "geometry": { "type": "Point", "coordinates": [ 73.4362811, -0.3045419 ] } },
{ "type": "Feature", "properties": { "Name": "Nivil", "description": null }, "geometry": { "type": "Point", "coordinates": [ 73.4368363, -0.304373 ] } },
{ "type": "Feature", "properties": { "Name": "Vaijeheyge", "description": null }, "geometry": { "type": "Point", "coordinates": [ 73.4367371, -0.3042818 ] } },
{ "type": "Feature", "properties": { "Name": "Femorraage", "description": null }, "geometry": { "type": "Point", "coordinates": [ 73.4365869, -0.3041718 ] } },
{ "type": "Feature", "properties": { "Name": "Orchid House", "description": null }, "geometry": { "type": "Point", "coordinates": [ 73.4373406, -0.3053895 ] } },
{ "type": "Feature", "properties": { "Name": "Dhooriyaage", "description": null }, "geometry": { "type": "Point", "coordinates": [ 73.4375229, -0.3052822 ] } },
{ "type": "Feature", "properties": { "Name": "Waseemeege", "description": null }, "geometry": { "type": "Point", "coordinates": [ 73.4375551, -0.3054619 ] } },
{ "type": "Feature", "properties": { "Name": "Hanhaara", "description": null }, "geometry": { "type": "Point", "coordinates": [ 73.4375337, -0.3056899 ] } },
{ "type": "Feature", "properties": { "Name": "Shizoaka", "description": null }, "geometry": { "type": "Point", "coordinates": [ 73.4374908, -0.3058643 ] } },
{ "type": "Feature", "properties": { "Name": "Fehivinage", "description": null }, "geometry": { "type": "Point", "coordinates": [ 73.4377348, -0.3059098 ] } },
{ "type": "Feature", "properties": { "Name": "Falhodhadu", "description": null }, "geometry": { "type": "Point", "coordinates": [ 73.4377617, -0.3060761 ] } },
{ "type": "Feature", "properties": { "Name": "Racy", "description": null }, "geometry": { "type": "Point", "coordinates": [ 73.4376517, -0.3060842 ] } },
{ "type": "Feature", "properties": { "Name": "Ever Blue", "description": null }, "geometry": { "type": "Point", "coordinates": [ 73.4375203, -0.3060922 ] } },
{ "type": "Feature", "properties": { "Name": "Guba", "description": null }, "geometry": { "type": "Point", "coordinates": [ 73.4374237, -0.3060815 ] } },
{ "type": "Feature", "properties": { "Name": "Light", "description": null }, "geometry": { "type": "Point", "coordinates": [ 73.43759, -0.3064597 ] } },
{ "type": "Feature", "properties": { "Name": "Bloom", "description": null }, "geometry": { "type": "Point", "coordinates": [ 73.4377429, -0.3065643 ] } },
{ "type": "Feature", "properties": { "Name": "Sheydee Villa", "description": null }, "geometry": { "type": "Point", "coordinates": [ 73.4373379, -0.3057731 ] } },
{ "type": "Feature", "properties": { "Name": "Sadaan", "description": null }, "geometry": { "type": "Point", "coordinates": [ 73.4372896, -0.3059581 ] } },
{ "type": "Feature", "properties": { "Name": "Sinaf", "description": null }, "geometry": { "type": "Point", "coordinates": [ 73.437236, -0.3060761 ] } },
{ "type": "Feature", "properties": { "Name": "Kothanmaage", "description": null }, "geometry": { "type": "Point", "coordinates": [ 73.4372145, -0.3062317 ] } },
{ "type": "Feature", "properties": { "Name": "Sweet Corner", "description": null }, "geometry": { "type": "Point", "coordinates": [ 73.4371877, -0.3063926 ] } },
{ "type": "Feature", "properties": { "Name": "Dhaana", "description": null }, "geometry": { "type": "Point", "coordinates": [ 73.4371528, -0.3066394 ] } },
{ "type": "Feature", "properties": { "Name": "Diaamo", "description": null }, "geometry": { "type": "Point", "coordinates": [ 73.4371394, -0.3067896 ] } },
{ "type": "Feature", "properties": { "Name": "Nasheedhee", "description": null }, "geometry": { "type": "Point", "coordinates": [ 73.4371179, -0.3069264 ] } },
{ "type": "Feature", "properties": { "Name": "Kausaru", "description": null }, "geometry": { "type": "Point", "coordinates": [ 73.4370777, -0.3070471 ] } },
{ "type": "Feature", "properties": { "Name": "Fendhuni", "description": null }, "geometry": { "type": "Point", "coordinates": [ 73.4368926, -0.3070417 ] } },
{ "type": "Feature", "properties": { "Name": "Alaaraa", "description": null }, "geometry": { "type": "Point", "coordinates": [ 73.4366352, -0.3069962 ] } },
{ "type": "Feature", "properties": { "Name": "Burunu", "description": null }, "geometry": { "type": "Point", "coordinates": [ 73.4368873, -0.3069049 ] } },
{ "type": "Feature", "properties": { "Name": "Sonic", "description": null }, "geometry": { "type": "Point", "coordinates": [ 73.4368899, -0.3067735 ] } },
{ "type": "Feature", "properties": { "Name": "Relax", "description": null }, "geometry": { "type": "Point", "coordinates": [ 73.4366673, -0.3068593 ] } },
{ "type": "Feature", "properties": { "Name": "Raaz", "description": null }, "geometry": { "type": "Point", "coordinates": [ 73.4366807, -0.3067279 ] } },
{ "type": "Feature", "properties": { "Name": "Lush", "description": null }, "geometry": { "type": "Point", "coordinates": [ 73.4364715, -0.3067038 ] } },
{ "type": "Feature", "properties": { "Name": "Lesha", "description": null }, "geometry": { "type": "Point", "coordinates": [ 73.4364393, -0.3068245 ] } },
{ "type": "Feature", "properties": { "Name": "Fly", "description": null }, "geometry": { "type": "Point", "coordinates": [ 73.4364259, -0.3069505 ] } },
{ "type": "Feature", "properties": { "Name": "Ever", "description": null }, "geometry": { "type": "Point", "coordinates": [ 73.4369382, -0.3066233 ] } },
{ "type": "Feature", "properties": { "Name": "Fantasy", "description": null }, "geometry": { "type": "Point", "coordinates": [ 73.4369087, -0.3064758 ] } },
{ "type": "Feature", "properties": { "Name": "Valley", "description": null }, "geometry": { "type": "Point", "coordinates": [ 73.4366217, -0.3061298 ] } },
{ "type": "Feature", "properties": { "Name": "Gasdhoshuge", "description": null }, "geometry": { "type": "Point", "coordinates": [ 73.4367022, -0.3060332 ] } },
{ "type": "Feature", "properties": { "Name": "Alas", "description": null }, "geometry": { "type": "Point", "coordinates": [ 73.43678, -0.305934 ] } },
{ "type": "Feature", "properties": { "Name": "Ruby", "description": null }, "geometry": { "type": "Point", "coordinates": [ 73.4369731, -0.3057784 ] } },
{ "type": "Feature", "properties": { "Name": "Ablagheege", "description": null }, "geometry": { "type": "Point", "coordinates": [ 73.4370965, -0.3056309 ] } },
{ "type": "Feature", "properties": { "Name": "Rukkosheege", "description": null }, "geometry": { "type": "Point", "coordinates": [ 73.4372145, -0.3055075 ] } },
{ "type": "Feature", "properties": { "Name": "Vakifoo", "description": null }, "geometry": { "type": "Point", "coordinates": [ 73.4366459, -0.3055746 ] } },
{ "type": "Feature", "properties": { "Name": "Guleysaage", "description": null }, "geometry": { "type": "Point", "coordinates": [ 73.4369114, -0.3056041 ] } },
{ "type": "Feature", "properties": { "Name": "Elhege", "description": null }, "geometry": { "type": "Point", "coordinates": [ 73.4366432, -0.3058777 ] } },
{ "type": "Feature", "properties": { "Name": "Dhandumatheege", "description": null }, "geometry": { "type": "Point", "coordinates": [ 73.4364903, -0.305993 ] } },
{ "type": "Feature", "properties": { "Name": "Sweet Pea", "description": null }, "geometry": { "type": "Point", "coordinates": [ 73.4363937, -0.3061566 ] } },
{ "type": "Feature", "properties": { "Name": "Champa Villa\n", "description": null }, "geometry": { "type": "Point", "coordinates": [ 73.436147, -0.3058428 ] } },
{ "type": "Feature", "properties": { "Name": "Dhoshimainaage", "description": null }, "geometry": { "type": "Point", "coordinates": [ 73.4363481, -0.3057221 ] } },
{ "type": "Feature", "properties": { "Name": "Valutherage", "description": null }, "geometry": { "type": "Point", "coordinates": [ 73.4360558, -0.3060654 ] } },
{ "type": "Feature", "properties": { "Name": "Dhiggagasdhoshuge", "description": null }, "geometry": { "type": "Point", "coordinates": [ 73.4357688, -0.3059581 ] } },
{ "type": "Feature", "properties": { "Name": "Dhooheberige", "description": null }, "geometry": { "type": "Point", "coordinates": [ 73.4352189, -0.3054324 ] } },
{ "type": "Feature", "properties": { "Name": "Baarish", "description": null }, "geometry": { "type": "Point", "coordinates": [ 73.4316918, -0.3071329 ] } },
{ "type": "Feature", "properties": { "Name": "New Heaven\n", "description": null }, "geometry": { "type": "Point", "coordinates": [ 73.4320191, -0.3071758 ] } },
{ "type": "Feature", "properties": { "Name": "Shuhurath", "description": null }, "geometry": { "type": "Point", "coordinates": [ 73.4321746, -0.3072053 ] } },
{ "type": "Feature", "properties": { "Name": "Happy Bird", "description": null }, "geometry": { "type": "Point", "coordinates": [ 73.4323544, -0.3072616 ] } },
{ "type": "Feature", "properties": { "Name": "Honeymoon", "description": null }, "geometry": { "type": "Point", "coordinates": [ 73.4324616, -0.3070551 ] } },
{ "type": "Feature", "properties": { "Name": "Sunrise", "description": null }, "geometry": { "type": "Point", "coordinates": [ 73.432585, -0.3070846 ] } },
{ "type": "Feature", "properties": { "Name": "Pearl", "description": null }, "geometry": { "type": "Point", "coordinates": [ 73.4324912, -0.3072295 ] } },
{ "type": "Feature", "properties": { "Name": "Asey", "description": null }, "geometry": { "type": "Point", "coordinates": [ 73.4323409, -0.3074601 ] } },
{ "type": "Feature", "properties": { "Name": "Noofaru", "description": null }, "geometry": { "type": "Point", "coordinates": [ 73.4324348, -0.3075379 ] } },
{ "type": "Feature", "properties": { "Name": "Lilymaage", "description": null }, "geometry": { "type": "Point", "coordinates": [ 73.436434, -0.3038499 ] } },
{ "type": "Feature", "properties": { "Name": "Ranfaandu", "description": null }, "geometry": { "type": "Point", "coordinates": [ 73.4363186, -0.3040162 ] } },
{ "type": "Feature", "properties": { "Name": "Runway", "description": null }, "geometry": { "type": "Point", "coordinates": [ 73.4362864, -0.3035898 ] } },
{ "type": "Feature", "properties": { "Name": "Rankasabuge", "description": null }, "geometry": { "type": "Point", "coordinates": [ 73.4361684, -0.3036729 ] } },
{ "type": "Feature", "properties": { "Name": "Randhelige", "description": null }, "geometry": { "type": "Point", "coordinates": [ 73.4359217, -0.3038741 ] } },
{ "type": "Feature", "properties": { "Name": "Makhumaavilla", "description": null }, "geometry": { "type": "Point", "coordinates": [ 73.4359029, -0.30374 ] } },
{ "type": "Feature", "properties": { "Name": "Aif", "description": null }, "geometry": { "type": "Point", "coordinates": [ 73.4356561, -0.304027 ] } },
{ "type": "Feature", "properties": { "Name": "Annaarumaage", "description": null }, "geometry": { "type": "Point", "coordinates": [ 73.4355891, -0.3040296 ] } },
{ "type": "Feature", "properties": { "Name": "Smooth", "description": null }, "geometry": { "type": "Point", "coordinates": [ 73.4355113, -0.3040055 ] } },
{ "type": "Feature", "properties": { "Name": "Bihloorijehige", "description": null }, "geometry": { "type": "Point", "coordinates": [ 73.4355059, -0.3037936 ] } },
{ "type": "Feature", "properties": { "Name": "Naseemeege", "description": null }, "geometry": { "type": "Point", "coordinates": [ 73.4352645, -0.3039438 ] } },
{ "type": "Feature", "properties": { "Name": "Karankaavilla", "description": null }, "geometry": { "type": "Point", "coordinates": [ 73.4352538, -0.3037883 ] } },
{ "type": "Feature", "properties": { "Name": "Luxleen", "description": null }, "geometry": { "type": "Point", "coordinates": [ 73.4349614, -0.3038124 ] } },
{ "type": "Feature", "properties": { "Name": "Olhutherege", "description": null }, "geometry": { "type": "Point", "coordinates": [ 73.43505, -0.3036515 ] } },
{ "type": "Feature", "properties": { "Name": "Kunahagaalige", "description": null }, "geometry": { "type": "Point", "coordinates": [ 73.4349722, -0.3034396 ] } },
{ "type": "Feature", "properties": { "Name": "Kalhofehige", "description": null }, "geometry": { "type": "Point", "coordinates": [ 73.4342292, -0.3041423 ] } },
{ "type": "Feature", "properties": { "Name": "Alivaage", "description": null }, "geometry": { "type": "Point", "coordinates": [ 73.4345323, -0.3043703 ] } },
{ "type": "Feature", "properties": { "Name": "Gomakasthoorige", "description": null }, "geometry": { "type": "Point", "coordinates": [ 73.4362462, -0.30628 ] } },
{ "type": "Feature", "properties": { "Name": "Sundhaleege", "description": null }, "geometry": { "type": "Point", "coordinates": [ 73.435919, -0.3065294 ] } },
{ "type": "Feature", "properties": { "Name": "Baansree", "description": null }, "geometry": { "type": "Point", "coordinates": [ 73.4356481, -0.306693 ] } },
{ "type": "Feature", "properties": { "Name": "Hathaa", "description": null }, "geometry": { "type": "Point", "coordinates": [ 73.4355435, -0.3067628 ] } },
{ "type": "Feature", "properties": { "Name": "Kudhifeyruge", "description": null }, "geometry": { "type": "Point", "coordinates": [ 73.4364823, -0.3063041 ] } },
{ "type": "Feature", "properties": { "Name": "Dhuburimaage", "description": null }, "geometry": { "type": "Point", "coordinates": [ 73.4362435, -0.3064812 ] } },
{ "type": "Feature", "properties": { "Name": "Sandharoasge", "description": "SANDHAROASGE" }, "geometry": { "type": "Point", "coordinates": [ 73.4360343, -0.3066367 ] } },
{ "type": "Feature", "properties": { "Name": "Amico", "description": null }, "geometry": { "type": "Point", "coordinates": [ 73.4359404, -0.3067118 ] } },
{ "type": "Feature", "properties": { "Name": "Comment", "description": null }, "geometry": { "type": "Point", "coordinates": [ 73.4356427, -0.3068674 ] } },
{ "type": "Feature", "properties": { "Name": "Cornsleet", "description": null }, "geometry": { "type": "Point", "coordinates": [ 73.4357125, -0.3069639 ] } },
{ "type": "Feature", "properties": { "Name": "Shuzaan", "description": null }, "geometry": { "type": "Point", "coordinates": [ 73.4356079, -0.3069961 ] } },
{ "type": "Feature", "properties": { "Name": "Leyfah", "description": null }, "geometry": { "type": "Point", "coordinates": [ 73.4354281, -0.3068432 ] } },
{ "type": "Feature", "properties": { "Name": "Icege", "description": null }, "geometry": { "type": "Point", "coordinates": [ 73.4354174, -0.3070578 ] } },
{ "type": "Feature", "properties": { "Name": "Seasonge", "description": null }, "geometry": { "type": "Point", "coordinates": [ 73.4352699, -0.3067896 ] } },
{ "type": "Feature", "properties": { "Name": "Arsee", "description": null }, "geometry": { "type": "Point", "coordinates": [ 73.4350526, -0.3069264 ] } },
{ "type": "Feature", "properties": { "Name": "Latheefee Manzil", "description": null }, "geometry": { "type": "Point", "coordinates": [ 73.4351841, -0.3070846 ] } },
{ "type": "Feature", "properties": { "Name": "Athagasdhoshuge", "description": null }, "geometry": { "type": "Point", "coordinates": [ 73.4349829, -0.307098 ] } },
{ "type": "Feature", "properties": { "Name": "Faheema Manzil", "description": null }, "geometry": { "type": "Point", "coordinates": [ 73.4348381, -0.3071463 ] } },
{ "type": "Feature", "properties": { "Name": "Felize", "description": null }, "geometry": { "type": "Point", "coordinates": [ 73.43472, -0.3069613 ] } },
{ "type": "Feature", "properties": { "Name": "Nooranmaage", "description": null }, "geometry": { "type": "Point", "coordinates": [ 73.4346181, -0.3070203 ] } },
{ "type": "Feature", "properties": { "Name": "Miladhooge", "description": null }, "geometry": { "type": "Point", "coordinates": [ 73.4344759, -0.3070551 ] } },
{ "type": "Feature", "properties": { "Name": "Dhonebooge", "description": null }, "geometry": { "type": "Point", "coordinates": [ 73.43472, -0.3071785 ] } },
{ "type": "Feature", "properties": { "Name": "Rabarumaage", "description": null }, "geometry": { "type": "Point", "coordinates": [ 73.4345511, -0.3072107 ] } },
{ "type": "Feature", "properties": { "Name": "Rabarumaage aage", "description": null }, "geometry": { "type": "Point", "coordinates": [ 73.4346128, -0.3073582 ] } },
{ "type": "Feature", "properties": { "Name": "Naashidha Manzil", "description": null }, "geometry": { "type": "Point", "coordinates": [ 73.4346208, -0.3075487 ] } },
{ "type": "Feature", "properties": { "Name": "Joy", "description": "Joy" }, "geometry": { "type": "Point", "coordinates": [ 73.4344438, -0.3075245 ] } },
{ "type": "Feature", "properties": { "Name": "Alfa", "description": null }, "geometry": { "type": "Point", "coordinates": [ 73.4344438, -0.307259 ] } },
{ "type": "Feature", "properties": { "Name": "Alfa aage", "description": null }, "geometry": { "type": "Point", "coordinates": [ 73.4343392, -0.3072509 ] } },
{ "type": "Feature", "properties": { "Name": "Hikandhimaage", "description": null }, "geometry": { "type": "Point", "coordinates": [ 73.4341648, -0.3071329 ] } },
{ "type": "Feature", "properties": { "Name": "Vilunoo", "description": null }, "geometry": { "type": "Point", "coordinates": [ 73.4342855, -0.3075165 ] } },
{ "type": "Feature", "properties": { "Name": "Mekko", "description": null }, "geometry": { "type": "Point", "coordinates": [ 73.4342131, -0.3072778 ] } },
{ "type": "Feature", "properties": { "Name": "Naseemee Villa", "description": null }, "geometry": { "type": "Point", "coordinates": [ 73.4340414, -0.3073448 ] } },
{ "type": "Feature", "properties": { "Name": "Hudhumaage", "description": null }, "geometry": { "type": "Point", "coordinates": [ 73.4338081, -0.3070471 ] } },
{ "type": "Feature", "properties": { "Name": "Kinbi", "description": null }, "geometry": { "type": "Point", "coordinates": [ 73.4338054, -0.3072107 ] } },
{ "type": "Feature", "properties": { "Name": "Romage", "description": null }, "geometry": { "type": "Point", "coordinates": [ 73.4337679, -0.307385 ] } },
{ "type": "Feature", "properties": { "Name": "Noravi", "description": null }, "geometry": { "type": "Point", "coordinates": [ 73.4338966, -0.3073529 ] } },
{ "type": "Feature", "properties": { "Name": "Romage Aage", "description": null }, "geometry": { "type": "Point", "coordinates": [ 73.4338054, -0.3075379 ] } },
{ "type": "Feature", "properties": { "Name": "Utheemuge", "description": null }, "geometry": { "type": "Point", "coordinates": [ 73.4335881, -0.3074199 ] } },
{ "type": "Feature", "properties": { "Name": "Falliyaage", "description": null }, "geometry": { "type": "Point", "coordinates": [ 73.4334487, -0.3074521 ] } },
{ "type": "Feature", "properties": { "Name": "Dhonaabuge", "description": null }, "geometry": { "type": "Point", "coordinates": [ 73.4334192, -0.3073126 ] } },
{ "type": "Feature", "properties": { "Name": "Onoda", "description": null }, "geometry": { "type": "Point", "coordinates": [ 73.4332529, -0.3073797 ] } },
{ "type": "Feature", "properties": { "Name": "Rare", "description": null }, "geometry": { "type": "Point", "coordinates": [ 73.4331483, -0.3073985 ] } },
{ "type": "Feature", "properties": { "Name": "New Way", "description": null }, "geometry": { "type": "Point", "coordinates": [ 73.4331161, -0.3075218 ] } },
{ "type": "Feature", "properties": { "Name": "Nujoom", "description": null }, "geometry": { "type": "Point", "coordinates": [ 73.4331, -0.3076237 ] } },
{ "type": "Feature", "properties": { "Name": "Hedhey Kuri", "description": null }, "geometry": { "type": "Point", "coordinates": [ 73.4332073, -0.3072617 ] } },
{ "type": "Feature", "properties": { "Name": "Zeena Villa", "description": null }, "geometry": { "type": "Point", "coordinates": [ 73.4330517, -0.3072295 ] } },
{ "type": "Feature", "properties": { "Name": "Minvaru", "description": null }, "geometry": { "type": "Point", "coordinates": [ 73.4327245, -0.3071463 ] } },
{ "type": "Feature", "properties": { "Name": "Madhadhu", "description": null }, "geometry": { "type": "Point", "coordinates": [ 73.4329498, -0.3073958 ] } },
{ "type": "Feature", "properties": { "Name": "Rest", "description": null }, "geometry": { "type": "Point", "coordinates": [ 73.4328237, -0.3073797 ] } },
{ "type": "Feature", "properties": { "Name": "Raf Haane", "description": null }, "geometry": { "type": "Point", "coordinates": [ 73.4325609, -0.3075889 ] } },
{ "type": "Feature", "properties": { "Name": "Aasumaanuge", "description": null }, "geometry": { "type": "Point", "coordinates": [ 73.4362891, -0.3032438 ] } },
{ "type": "Feature", "properties": { "Name": "Gaanet", "description": null }, "geometry": { "type": "Point", "coordinates": [ 73.4362221, -0.303512 ] } },
{ "type": "Feature", "properties": { "Name": "Copyge", "description": null }, "geometry": { "type": "Point", "coordinates": [ 73.43575, -0.3034556 ] } },
{ "type": "Feature", "properties": { "Name": "Daisy villa", "description": null }, "geometry": { "type": "Point", "coordinates": [ 73.4353665, -0.3034503 ] } },
{ "type": "Feature", "properties": { "Name": "Fenvillage ", "description": null }, "geometry": { "type": "Point", "coordinates": [ 73.4360853, -0.3033322 ] } },
{ "type": "Feature", "properties": { "Name": "Fenvillage ", "description": null }, "geometry": { "type": "Point", "coordinates": [ 73.4359753, -0.3031445 ] } },
{ "type": "Feature", "properties": { "Name": "Fenkuri Hiya", "description": null }, "geometry": { "type": "Point", "coordinates": [ 73.4359056, -0.3032491 ] } },
{ "type": "Feature", "properties": { "Name": "Euro", "description": null }, "geometry": { "type": "Point", "coordinates": [ 73.4366325, -0.3032116 ] } },
{ "type": "Feature", "properties": { "Name": "Aladhandige", "description": null }, "geometry": { "type": "Point", "coordinates": [ 73.4365895, -0.3031392 ] } },
{ "type": "Feature", "properties": { "Name": "Heenaadige", "description": null }, "geometry": { "type": "Point", "coordinates": [ 73.4361497, -0.3029756 ] } },
{ "type": "Feature", "properties": { "Name": "Rino", "description": null }, "geometry": { "type": "Point", "coordinates": [ 73.4358707, -0.3029353 ] } },
{ "type": "Feature", "properties": { "Name": "Kandubalaage", "description": null }, "geometry": { "type": "Point", "coordinates": [ 73.4357688, -0.3031231 ] } },
{ "type": "Feature", "properties": { "Name": "Nadhuvaa", "description": null }, "geometry": { "type": "Point", "coordinates": [ 73.4361202, -0.3028575 ] } },
{ "type": "Feature", "properties": { "Name": "Aage", "description": null }, "geometry": { "type": "Point", "coordinates": [ 73.4359297, -0.3026698 ] } },
{ "type": "Feature", "properties": { "Name": "Arimatheege", "description": null }, "geometry": { "type": "Point", "coordinates": [ 73.4356937, -0.30271 ] } },
{ "type": "Feature", "properties": { "Name": "Helabelimaage", "description": null }, "geometry": { "type": "Point", "coordinates": [ 73.4353557, -0.3026242 ] } },
{ "type": "Feature", "properties": { "Name": "Maanil", "description": null }, "geometry": { "type": "Point", "coordinates": [ 73.4352806, -0.3030909 ] } },
{ "type": "Feature", "properties": { "Name": "Dhilaavaaruge", "description": null }, "geometry": { "type": "Point", "coordinates": [ 73.4351653, -0.3030989 ] } },
{ "type": "Feature", "properties": { "Name": "Burolhigasdhoshuge", "description": null }, "geometry": { "type": "Point", "coordinates": [ 73.4348649, -0.3029407 ] } },
{ "type": "Feature", "properties": { "Name": "Massaaguge", "description": null }, "geometry": { "type": "Point", "coordinates": [ 73.4342292, -0.3023935 ] } },
{ "type": "Feature", "properties": { "Name": "Waadheege", "description": null }, "geometry": { "type": "Point", "coordinates": [ 73.4358197, -0.3025089 ] } },
{ "type": "Feature", "properties": { "Name": "Magivadodhoruge", "description": null }, "geometry": { "type": "Point", "coordinates": [ 73.435683, -0.3023613 ] } },
{ "type": "Feature", "properties": { "Name": "New Sun", "description": null }, "geometry": { "type": "Point", "coordinates": [ 73.4354818, -0.3020046 ] } },
{ "type": "Feature", "properties": { "Name": "Active", "description": null }, "geometry": { "type": "Point", "coordinates": [ 73.4354308, -0.3018222 ] } },
{ "type": "Feature", "properties": { "Name": "Aasimee Manzil", "description": null }, "geometry": { "type": "Point", "coordinates": [ 73.4355676, -0.3017927 ] } },
{ "type": "Feature", "properties": { "Name": "Magusadhu", "description": null }, "geometry": { "type": "Point", "coordinates": [ 73.4353235, -0.3018222 ] } },
{ "type": "Feature", "properties": { "Name": "Soafiyaa", "description": null }, "geometry": { "type": "Point", "coordinates": [ 73.4352082, -0.3016747 ] } },
{ "type": "Feature", "properties": { "Name": "Dhunfinige", "description": null }, "geometry": { "type": "Point", "coordinates": [ 73.4351546, -0.3015781 ] } },
{ "type": "Feature", "properties": { "Name": "Unimaa", "description": null }, "geometry": { "type": "Point", "coordinates": [ 73.4350821, -0.3014521 ] } },
{ "type": "Feature", "properties": { "Name": "Maajeheege", "description": null }, "geometry": { "type": "Point", "coordinates": [ 73.4345564, -0.3021629 ] } },
{ "type": "Feature", "properties": { "Name": "Saveyraa", "description": null }, "geometry": { "type": "Point", "coordinates": [ 73.4346315, -0.3018169 ] } },
{ "type": "Feature", "properties": { "Name": "Velaaveli", "description": null }, "geometry": { "type": "Point", "coordinates": [ 73.43483, -0.3013904 ] } },
{ "type": "Feature", "properties": { "Name": "Laaluge", "description": null }, "geometry": { "type": "Point", "coordinates": [ 73.4350339, -0.3012992 ] } },
{ "type": "Feature", "properties": { "Name": "Alvaaz", "description": null }, "geometry": { "type": "Point", "coordinates": [ 73.4349641, -0.3011731 ] } },
{ "type": "Feature", "properties": { "Name": "Gaakedige", "description": null }, "geometry": { "type": "Point", "coordinates": [ 73.4348139, -0.301031 ] } },
{ "type": "Feature", "properties": { "Name": "Suvaasaage", "description": null }, "geometry": { "type": "Point", "coordinates": [ 73.4347093, -0.3012482 ] } },
{ "type": "Feature", "properties": { "Name": "Noovilla", "description": null }, "geometry": { "type": "Point", "coordinates": [ 73.4345859, -0.3010712 ] } },
{ "type": "Feature", "properties": { "Name": "Fusthulhaage", "description": null }, "geometry": { "type": "Point", "coordinates": [ 73.4345108, -0.3010203 ] } },
{ "type": "Feature", "properties": { "Name": "Karanfooge", "description": null }, "geometry": { "type": "Point", "coordinates": [ 73.4347093, -0.30087 ] } },
{ "type": "Feature", "properties": { "Name": "Alas", "description": null }, "geometry": { "type": "Point", "coordinates": [ 73.4344679, -0.3008915 ] } },
{ "type": "Feature", "properties": { "Name": "Sun Reef", "description": null }, "geometry": { "type": "Point", "coordinates": [ 73.4346208, -0.3006984 ] } },
{ "type": "Feature", "properties": { "Name": "Juliet", "description": null }, "geometry": { "type": "Point", "coordinates": [ 73.434315, -0.300862 ] } },
{ "type": "Feature", "properties": { "Name": "Foavahi", "description": null }, "geometry": { "type": "Point", "coordinates": [ 73.4341139, -0.3009344 ] } },
{ "type": "Feature", "properties": { "Name": "Sundhuseege", "description": null }, "geometry": { "type": "Point", "coordinates": [ 73.4341192, -0.3010819 ] } },
{ "type": "Feature", "properties": { "Name": "Zenith", "description": null }, "geometry": { "type": "Point", "coordinates": [ 73.433969, -0.3010417 ] } },
{ "type": "Feature", "properties": { "Name": "Naaringuvilla", "description": null }, "geometry": { "type": "Point", "coordinates": [ 73.4337491, -0.3010042 ] } },
{ "type": "Feature", "properties": { "Name": "Faseeh Aabaadhu", "description": null }, "geometry": { "type": "Point", "coordinates": [ 73.4345296, -0.3005911 ] } },
{ "type": "Feature", "properties": { "Name": "Romance", "description": null }, "geometry": { "type": "Point", "coordinates": [ 73.4343258, -0.3006501 ] } },
{ "type": "Feature", "properties": { "Name": "Morgan", "description": null }, "geometry": { "type": "Point", "coordinates": [ 73.4344518, -0.3004865 ] } },
{ "type": "Feature", "properties": { "Name": "Radium Villa", "description": null }, "geometry": { "type": "Point", "coordinates": [ 73.4343767, -0.3003658 ] } },
{ "type": "Feature", "properties": { "Name": "Eastlight", "description": null }, "geometry": { "type": "Point", "coordinates": [ 73.4337196, -0.3006072 ] } },
{ "type": "Feature", "properties": { "Name": "Vinaaveyre", "description": null }, "geometry": { "type": "Point", "coordinates": [ 73.4339315, -0.3005992 ] } },
{ "type": "Feature", "properties": { "Name": "Rally", "description": null }, "geometry": { "type": "Point", "coordinates": [ 73.4339637, -0.3003765 ] } },
{ "type": "Feature", "properties": { "Name": "Ambaru", "description": null }, "geometry": { "type": "Point", "coordinates": [ 73.4384993, -0.3068137 ] } },
{ "type": "Feature", "properties": { "Name": "Fasfiya", "description": null }, "geometry": { "type": "Point", "coordinates": [ 73.436965, -0.306229 ] } },
{ "type": "Feature", "properties": { "Name": "Reeko", "description": null }, "geometry": { "type": "Point", "coordinates": [ 73.4326306, -0.3072804 ] } }
]
}
