{
"type": "FeatureCollection",
"name": "Hoadhadu",
"crs": { "type": "name", "properties": { "name": "urn:ogc:def:crs:OGC:1.3:CRS84" } },
"features": [
{ "type": "Feature", "properties": { "Name": "Laos", "description": null }, "geometry": { "type": "Point", "coordinates": [ 73.4231141, -0.2875075 ] } },
{ "type": "Feature", "properties": { "Name": "Dhirimaage", "description": null }, "geometry": { "type": "Point", "coordinates": [ 73.4213277, -0.2848012 ] } },
{ "type": "Feature", "properties": { "Name": "Simaagu", "description": null }, "geometry": { "type": "Point", "coordinates": [ 73.4235084, -0.2880653 ] } },
{ "type": "Feature", "properties": { "Name": "Baamiya", "description": null }, "geometry": { "type": "Point", "coordinates": [ 73.4231731, -0.2876791 ] } },
{ "type": "Feature", "properties": { "Name": "Kokaage", "description": null }, "geometry": { "type": "Point", "coordinates": [ 73.4233958, -0.2879152 ] } },
{ "type": "Feature", "properties": { "Name": "Vanue", "description": null }, "geometry": { "type": "Point", "coordinates": [ 73.4187528, -0.281148 ] } },
{ "type": "Feature", "properties": { "Name": "Aafehi", "description": null }, "geometry": { "type": "Point", "coordinates": [ 73.4188735, -0.281317 ] } },
{ "type": "Feature", "properties": { "Name": "Sail", "description": null }, "geometry": { "type": "Point", "coordinates": [ 73.4186321, -0.2812339 ] } },
{ "type": "Feature", "properties": { "Name": "Harumaluge", "description": null }, "geometry": { "type": "Point", "coordinates": [ 73.4232214, -0.2879393 ] } },
{ "type": "Feature", "properties": { "Name": "Move", "description": null }, "geometry": { "type": "Point", "coordinates": [ 73.4187421, -0.2813733 ] } },
{ "type": "Feature", "properties": { "Name": "Aveyla", "description": null }, "geometry": { "type": "Point", "coordinates": [ 73.4185275, -0.281317 ] } },
{ "type": "Feature", "properties": { "Name": "Zoom", "description": null }, "geometry": { "type": "Point", "coordinates": [ 73.4184417, -0.2814323 ] } },
{ "type": "Feature", "properties": { "Name": "Neek", "description": null }, "geometry": { "type": "Point", "coordinates": [ 73.4185383, -0.281553 ] } },
{ "type": "Feature", "properties": { "Name": "Full Moon", "description": null }, "geometry": { "type": "Point", "coordinates": [ 73.4182754, -0.281494 ] } },
{ "type": "Feature", "properties": { "Name": "Menu", "description": null }, "geometry": { "type": "Point", "coordinates": [ 73.4181494, -0.2815933 ] } },
{ "type": "Feature", "properties": { "Name": "Dharuma", "description": null }, "geometry": { "type": "Point", "coordinates": [ 73.4179777, -0.2816845 ] } },
{ "type": "Feature", "properties": { "Name": "Sinva", "description": null }, "geometry": { "type": "Point", "coordinates": [ 73.4178865, -0.2817622 ] } },
{ "type": "Feature", "properties": { "Name": "Ashaathi", "description": null }, "geometry": { "type": "Point", "coordinates": [ 73.4177068, -0.2816362 ] } },
{ "type": "Feature", "properties": { "Name": "Addana", "description": null }, "geometry": { "type": "Point", "coordinates": [ 73.4178141, -0.2815584 ] } },
{ "type": "Feature", "properties": { "Name": "Himeyn", "description": null }, "geometry": { "type": "Point", "coordinates": [ 73.4179187, -0.281494 ] } },
{ "type": "Feature", "properties": { "Name": "Shuza", "description": null }, "geometry": { "type": "Point", "coordinates": [ 73.4180447, -0.2814404 ] } },
{ "type": "Feature", "properties": { "Name": "Happy", "description": null }, "geometry": { "type": "Point", "coordinates": [ 73.4181628, -0.2813706 ] } },
{ "type": "Feature", "properties": { "Name": "Sunny", "description": null }, "geometry": { "type": "Point", "coordinates": [ 73.4180662, -0.2811641 ] } },
{ "type": "Feature", "properties": { "Name": "Vass", "description": null }, "geometry": { "type": "Point", "coordinates": [ 73.4179348, -0.2812204 ] } },
{ "type": "Feature", "properties": { "Name": "Khareef", "description": null }, "geometry": { "type": "Point", "coordinates": [ 73.4178329, -0.2813304 ] } },
{ "type": "Feature", "properties": { "Name": "Sea Breeze", "description": null }, "geometry": { "type": "Point", "coordinates": [ 73.4177175, -0.2813975 ] } },
{ "type": "Feature", "properties": { "Name": "Hijaab", "description": null }, "geometry": { "type": "Point", "coordinates": [ 73.4176236, -0.281494 ] } },
{ "type": "Feature", "properties": { "Name": "Real", "description": null }, "geometry": { "type": "Point", "coordinates": [ 73.4175619, -0.281258 ] } },
{ "type": "Feature", "properties": { "Name": "Sifani", "description": null }, "geometry": { "type": "Point", "coordinates": [ 73.4176853, -0.2811695 ] } },
{ "type": "Feature", "properties": { "Name": "Neno", "description": null }, "geometry": { "type": "Point", "coordinates": [ 73.4177846, -0.2811024 ] } },
{ "type": "Feature", "properties": { "Name": "Demand", "description": null }, "geometry": { "type": "Point", "coordinates": [ 73.4179187, -0.2810407 ] } },
{ "type": "Feature", "properties": { "Name": "Heart", "description": null }, "geometry": { "type": "Point", "coordinates": [ 73.4177524, -0.2809576 ] } },
{ "type": "Feature", "properties": { "Name": "Jame", "description": null }, "geometry": { "type": "Point", "coordinates": [ 73.4175915, -0.2810327 ] } },
{ "type": "Feature", "properties": { "Name": "Border", "description": null }, "geometry": { "type": "Point", "coordinates": [ 73.417452, -0.2807993 ] } },
{ "type": "Feature", "properties": { "Name": "Lhis", "description": null }, "geometry": { "type": "Point", "coordinates": [ 73.4175164, -0.2808476 ] } },
{ "type": "Feature", "properties": { "Name": "Loyal", "description": null }, "geometry": { "type": "Point", "coordinates": [ 73.4169933, -0.2805794 ] } },
{ "type": "Feature", "properties": { "Name": "Waves", "description": null }, "geometry": { "type": "Point", "coordinates": [ 73.4183505, -0.2812553 ] } },
{ "type": "Feature", "properties": { "Name": "Lobby", "description": null }, "geometry": { "type": "Point", "coordinates": [ 73.4190157, -0.2815691 ] } },
{ "type": "Feature", "properties": { "Name": "Everest", "description": null }, "geometry": { "type": "Point", "coordinates": [ 73.4192624, -0.2814967 ] } },
{ "type": "Feature", "properties": { "Name": "Ridha", "description": null }, "geometry": { "type": "Point", "coordinates": [ 73.4195012, -0.2813277 ] } },
{ "type": "Feature", "properties": { "Name": "Soona", "description": null }, "geometry": { "type": "Point", "coordinates": [ 73.4196246, -0.2812285 ] } },
{ "type": "Feature", "properties": { "Name": "Mustharilodge", "description": null }, "geometry": { "type": "Point", "coordinates": [ 73.4197184, -0.281325 ] } },
{ "type": "Feature", "properties": { "Name": "Saaya", "description": null }, "geometry": { "type": "Point", "coordinates": [ 73.4195521, -0.2814484 ] } },
{ "type": "Feature", "properties": { "Name": "Zain", "description": null }, "geometry": { "type": "Point", "coordinates": [ 73.4193295, -0.2815825 ] } },
{ "type": "Feature", "properties": { "Name": "Eash", "description": null }, "geometry": { "type": "Point", "coordinates": [ 73.4196514, -0.281545 ] } },
{ "type": "Feature", "properties": { "Name": "Maava", "description": null }, "geometry": { "type": "Point", "coordinates": [ 73.4195441, -0.2816067 ] } },
{ "type": "Feature", "properties": { "Name": "Hilton", "description": null }, "geometry": { "type": "Point", "coordinates": [ 73.4194422, -0.2816603 ] } },
{ "type": "Feature", "properties": { "Name": "Yaadhu", "description": null }, "geometry": { "type": "Point", "coordinates": [ 73.4193617, -0.281722 ] } },
{ "type": "Feature", "properties": { "Name": "Rivaa", "description": null }, "geometry": { "type": "Point", "coordinates": [ 73.4195012, -0.2819124 ] } },
{ "type": "Feature", "properties": { "Name": "Kelvin", "description": null }, "geometry": { "type": "Point", "coordinates": [ 73.4196192, -0.2818642 ] } },
{ "type": "Feature", "properties": { "Name": "Koanish", "description": null }, "geometry": { "type": "Point", "coordinates": [ 73.4197024, -0.2818481 ] } },
{ "type": "Feature", "properties": { "Name": "Face", "description": null }, "geometry": { "type": "Point", "coordinates": [ 73.4197882, -0.281773 ] } },
{ "type": "Feature", "properties": { "Name": "Village", "description": null }, "geometry": { "type": "Point", "coordinates": [ 73.4196004, -0.2820948 ] } },
{ "type": "Feature", "properties": { "Name": "Season", "description": null }, "geometry": { "type": "Point", "coordinates": [ 73.4197399, -0.2819822 ] } },
{ "type": "Feature", "properties": { "Name": "Sildom", "description": null }, "geometry": { "type": "Point", "coordinates": [ 73.4191659, -0.281722 ] } },
{ "type": "Feature", "properties": { "Name": "Tiurin", "description": null }, "geometry": { "type": "Point", "coordinates": [ 73.419233, -0.2818212 ] } },
{ "type": "Feature", "properties": { "Name": "South", "description": null }, "geometry": { "type": "Point", "coordinates": [ 73.4194878, -0.2821968 ] } },
{ "type": "Feature", "properties": { "Name": "Malee", "description": null }, "geometry": { "type": "Point", "coordinates": [ 73.4193724, -0.2822772 ] } },
{ "type": "Feature", "properties": { "Name": "Enough", "description": null }, "geometry": { "type": "Point", "coordinates": [ 73.4197104, -0.2822182 ] } },
{ "type": "Feature", "properties": { "Name": "Delight", "description": null }, "geometry": { "type": "Point", "coordinates": [ 73.419579, -0.2823497 ] } },
{ "type": "Feature", "properties": { "Name": "Shubaas", "description": null }, "geometry": { "type": "Point", "coordinates": [ 73.4198365, -0.2821672 ] } },
{ "type": "Feature", "properties": { "Name": "Vision", "description": null }, "geometry": { "type": "Point", "coordinates": [ 73.4199813, -0.2820868 ] } },
{ "type": "Feature", "properties": { "Name": "Request", "description": null }, "geometry": { "type": "Point", "coordinates": [ 73.4196675, -0.2825186 ] } },
{ "type": "Feature", "properties": { "Name": "Vidhaathari", "description": null }, "geometry": { "type": "Point", "coordinates": [ 73.4198499, -0.2824221 ] } },
{ "type": "Feature", "properties": { "Name": "Autumn Glory", "description": null }, "geometry": { "type": "Point", "coordinates": [ 73.4199545, -0.2823282 ] } },
{ "type": "Feature", "properties": { "Name": "Wait", "description": null }, "geometry": { "type": "Point", "coordinates": [ 73.4200779, -0.2822236 ] } },
{ "type": "Feature", "properties": { "Name": "Lika", "description": null }, "geometry": { "type": "Point", "coordinates": [ 73.4197372, -0.2826447 ] } },
{ "type": "Feature", "properties": { "Name": "Seedhaa", "description": null }, "geometry": { "type": "Point", "coordinates": [ 73.4196407, -0.2827117 ] } },
{ "type": "Feature", "properties": { "Name": "Viva", "description": null }, "geometry": { "type": "Point", "coordinates": [ 73.419925, -0.2825615 ] } },
{ "type": "Feature", "properties": { "Name": "Last", "description": null }, "geometry": { "type": "Point", "coordinates": [ 73.4200269, -0.2825267 ] } },
{ "type": "Feature", "properties": { "Name": "Alma", "description": null }, "geometry": { "type": "Point", "coordinates": [ 73.4201798, -0.2824435 ] } },
{ "type": "Feature", "properties": { "Name": "West", "description": null }, "geometry": { "type": "Point", "coordinates": [ 73.4199196, -0.2828592 ] } },
{ "type": "Feature", "properties": { "Name": "Nice Way", "description": null }, "geometry": { "type": "Point", "coordinates": [ 73.4201074, -0.2826635 ] } },
{ "type": "Feature", "properties": { "Name": "Vaarehi", "description": null }, "geometry": { "type": "Point", "coordinates": [ 73.4202173, -0.2826232 ] } },
{ "type": "Feature", "properties": { "Name": "Evaan", "description": null }, "geometry": { "type": "Point", "coordinates": [ 73.419756, -0.2829585 ] } },
{ "type": "Feature", "properties": { "Name": "Will", "description": null }, "geometry": { "type": "Point", "coordinates": [ 73.4199786, -0.282996 ] } },
{ "type": "Feature", "properties": { "Name": "Rabaathu", "description": null }, "geometry": { "type": "Point", "coordinates": [ 73.4198686, -0.2830604 ] } },
{ "type": "Feature", "properties": { "Name": "Varuna", "description": null }, "geometry": { "type": "Point", "coordinates": [ 73.4201261, -0.28287 ] } },
{ "type": "Feature", "properties": { "Name": "Vathan", "description": null }, "geometry": { "type": "Point", "coordinates": [ 73.4202442, -0.2828083 ] } },
{ "type": "Feature", "properties": { "Name": "Fini", "description": null }, "geometry": { "type": "Point", "coordinates": [ 73.4200832, -0.2831892 ] } },
{ "type": "Feature", "properties": { "Name": "Kishthee", "description": null }, "geometry": { "type": "Point", "coordinates": [ 73.4202576, -0.2830926 ] } },
{ "type": "Feature", "properties": { "Name": "White", "description": null }, "geometry": { "type": "Point", "coordinates": [ 73.4203836, -0.2830121 ] } },
{ "type": "Feature", "properties": { "Name": "Green Night", "description": null }, "geometry": { "type": "Point", "coordinates": [ 73.4203782, -0.2832187 ] } },
{ "type": "Feature", "properties": { "Name": "Fehidhoola", "description": null }, "geometry": { "type": "Point", "coordinates": [ 73.4202039, -0.2832991 ] } },
{ "type": "Feature", "properties": { "Name": "Shua", "description": null }, "geometry": { "type": "Point", "coordinates": [ 73.42011, -0.2834118 ] } },
{ "type": "Feature", "properties": { "Name": "Roza", "description": null }, "geometry": { "type": "Point", "coordinates": [ 73.4203407, -0.2834949 ] } },
{ "type": "Feature", "properties": { "Name": "Thauzeebu", "description": null }, "geometry": { "type": "Point", "coordinates": [ 73.4204829, -0.2833662 ] } },
{ "type": "Feature", "properties": { "Name": "Nest", "description": null }, "geometry": { "type": "Point", "coordinates": [ 73.4206331, -0.2832321 ] } },
{ "type": "Feature", "properties": { "Name": "Novel", "description": null }, "geometry": { "type": "Point", "coordinates": [ 73.4203407, -0.2837444 ] } },
{ "type": "Feature", "properties": { "Name": "Karankaage", "description": null }, "geometry": { "type": "Point", "coordinates": [ 73.4204265, -0.2836076 ] } },
{ "type": "Feature", "properties": { "Name": "Zone", "description": null }, "geometry": { "type": "Point", "coordinates": [ 73.4205714, -0.283503 ] } },
{ "type": "Feature", "properties": { "Name": "Raahath", "description": null }, "geometry": { "type": "Point", "coordinates": [ 73.4206626, -0.2836183 ] } },
{ "type": "Feature", "properties": { "Name": "Nike", "description": null }, "geometry": { "type": "Point", "coordinates": [ 73.4204319, -0.2838517 ] } },
{ "type": "Feature", "properties": { "Name": "Naeem House", "description": null }, "geometry": { "type": "Point", "coordinates": [ 73.4205231, -0.2839911 ] } },
{ "type": "Feature", "properties": { "Name": "Vilivaru", "description": null }, "geometry": { "type": "Point", "coordinates": [ 73.4206411, -0.2838838 ] } },
{ "type": "Feature", "properties": { "Name": "Viya", "description": null }, "geometry": { "type": "Point", "coordinates": [ 73.4205687, -0.2837873 ] } },
{ "type": "Feature", "properties": { "Name": "Buruzu", "description": null }, "geometry": { "type": "Point", "coordinates": [ 73.4204829, -0.2837068 ] } },
{ "type": "Feature", "properties": { "Name": "Witness", "description": null }, "geometry": { "type": "Point", "coordinates": [ 73.4209093, -0.2839724 ] } },
{ "type": "Feature", "properties": { "Name": "Funfen", "description": null }, "geometry": { "type": "Point", "coordinates": [ 73.4209657, -0.2840475 ] } },
{ "type": "Feature", "properties": { "Name": "Elter", "description": null }, "geometry": { "type": "Point", "coordinates": [ 73.420786, -0.2843532 ] } },
{ "type": "Feature", "properties": { "Name": "Zamaanee Villa", "description": null }, "geometry": { "type": "Point", "coordinates": [ 73.4210247, -0.284423 ] } },
{ "type": "Feature", "properties": { "Name": "Tazaage", "description": null }, "geometry": { "type": "Point", "coordinates": [ 73.4210407, -0.2845356 ] } },
{ "type": "Feature", "properties": { "Name": "Goibilimaage", "description": null }, "geometry": { "type": "Point", "coordinates": [ 73.4211856, -0.2846617 ] } },
{ "type": "Feature", "properties": { "Name": "Lilac Villa", "description": null }, "geometry": { "type": "Point", "coordinates": [ 73.4215209, -0.2850425 ] } },
{ "type": "Feature", "properties": { "Name": "Souvenir", "description": null }, "geometry": { "type": "Point", "coordinates": [ 73.4199974, -0.2832804 ] } },
{ "type": "Feature", "properties": { "Name": "Bugey", "description": null }, "geometry": { "type": "Point", "coordinates": [ 73.4215987, -0.2851498 ] } },
{ "type": "Feature", "properties": { "Name": "Muraakka", "description": null }, "geometry": { "type": "Point", "coordinates": [ 73.4217033, -0.2852759 ] } },
{ "type": "Feature", "properties": { "Name": "Maaravana", "description": null }, "geometry": { "type": "Point", "coordinates": [ 73.4217542, -0.2853537 ] } },
{ "type": "Feature", "properties": { "Name": "Maaranga", "description": null }, "geometry": { "type": "Point", "coordinates": [ 73.4218213, -0.2854636 ] } },
{ "type": "Feature", "properties": { "Name": "Sarusoonumaage", "description": null }, "geometry": { "type": "Point", "coordinates": [ 73.4216711, -0.2855709 ] } },
{ "type": "Feature", "properties": { "Name": "Dhoola", "description": null }, "geometry": { "type": "Point", "coordinates": [ 73.4218186, -0.2857184 ] } },
{ "type": "Feature", "properties": { "Name": "Bandaara Villa", "description": null }, "geometry": { "type": "Point", "coordinates": [ 73.421596, -0.2858043 ] } },
{ "type": "Feature", "properties": { "Name": "Kaamuranga Maage", "description": null }, "geometry": { "type": "Point", "coordinates": [ 73.4219795, -0.285638 ] } },
{ "type": "Feature", "properties": { "Name": "Aivaa", "description": null }, "geometry": { "type": "Point", "coordinates": [ 73.4219527, -0.285925 ] } },
{ "type": "Feature", "properties": { "Name": "Gulf", "description": null }, "geometry": { "type": "Point", "coordinates": [ 73.4221217, -0.2858499 ] } },
{ "type": "Feature", "properties": { "Name": "Veevaru", "description": null }, "geometry": { "type": "Point", "coordinates": [ 73.4222183, -0.2859464 ] } },
{ "type": "Feature", "properties": { "Name": "Maarana", "description": null }, "geometry": { "type": "Point", "coordinates": [ 73.4220627, -0.2860618 ] } },
{ "type": "Feature", "properties": { "Name": "Vaari", "description": null }, "geometry": { "type": "Point", "coordinates": [ 73.4218964, -0.2861476 ] } },
{ "type": "Feature", "properties": { "Name": "Gulcosege", "description": null }, "geometry": { "type": "Point", "coordinates": [ 73.4217247, -0.2863917 ] } },
{ "type": "Feature", "properties": { "Name": "Robin Hood", "description": null }, "geometry": { "type": "Point", "coordinates": [ 73.4219581, -0.2862763 ] } },
{ "type": "Feature", "properties": { "Name": "Thuniveli", "description": null }, "geometry": { "type": "Point", "coordinates": [ 73.4220493, -0.2863944 ] } },
{ "type": "Feature", "properties": { "Name": "Vara", "description": null }, "geometry": { "type": "Point", "coordinates": [ 73.4222102, -0.2862039 ] } },
{ "type": "Feature", "properties": { "Name": "Sheen", "description": null }, "geometry": { "type": "Point", "coordinates": [ 73.4223014, -0.2861369 ] } },
{ "type": "Feature", "properties": { "Name": "Forum", "description": null }, "geometry": { "type": "Point", "coordinates": [ 73.4224436, -0.2863193 ] } },
{ "type": "Feature", "properties": { "Name": "Fashion", "description": null }, "geometry": { "type": "Point", "coordinates": [ 73.4222987, -0.2863729 ] } },
{ "type": "Feature", "properties": { "Name": "Aim", "description": null }, "geometry": { "type": "Point", "coordinates": [ 73.4225911, -0.2865794 ] } },
{ "type": "Feature", "properties": { "Name": "Cabbege", "description": null }, "geometry": { "type": "Point", "coordinates": [ 73.4224007, -0.2865955 ] } },
{ "type": "Feature", "properties": { "Name": "Mirihi", "description": null }, "geometry": { "type": "Point", "coordinates": [ 73.4225187, -0.2867618 ] } },
{ "type": "Feature", "properties": { "Name": "Raazavaage", "description": null }, "geometry": { "type": "Point", "coordinates": [ 73.4222424, -0.2866894 ] } },
{ "type": "Feature", "properties": { "Name": "Gulhazaaruge", "description": null }, "geometry": { "type": "Point", "coordinates": [ 73.4218428, -0.2870944 ] } },
{ "type": "Feature", "properties": { "Name": "Miriyaasige", "description": null }, "geometry": { "type": "Point", "coordinates": [ 73.4220064, -0.2868396 ] } },
{ "type": "Feature", "properties": { "Name": "Emveege", "description": null }, "geometry": { "type": "Point", "coordinates": [ 73.4221834, -0.2869549 ] } },
{ "type": "Feature", "properties": { "Name": "Giniraahige", "description": null }, "geometry": { "type": "Point", "coordinates": [ 73.4221673, -0.287317 ] } },
{ "type": "Feature", "properties": { "Name": "Miaheli", "description": null }, "geometry": { "type": "Point", "coordinates": [ 73.4224999, -0.2871883 ] } },
{ "type": "Feature", "properties": { "Name": "Faruma", "description": null }, "geometry": { "type": "Point", "coordinates": [ 73.4224946, -0.2864668 ] } },
{ "type": "Feature", "properties": { "Name": "Giritee", "description": null }, "geometry": { "type": "Point", "coordinates": [ 73.4227011, -0.2866894 ] } },
{ "type": "Feature", "properties": { "Name": "Ocean Villa", "description": null }, "geometry": { "type": "Point", "coordinates": [ 73.422583, -0.2869442 ] } },
{ "type": "Feature", "properties": { "Name": "Mendhooge", "description": null }, "geometry": { "type": "Point", "coordinates": [ 73.4227091, -0.2870756 ] } },
{ "type": "Feature", "properties": { "Name": "Baanz", "description": null }, "geometry": { "type": "Point", "coordinates": [ 73.4228915, -0.2869442 ] } },
{ "type": "Feature", "properties": { "Name": "Bilieve", "description": null }, "geometry": { "type": "Point", "coordinates": [ 73.4229532, -0.2870488 ] } },
{ "type": "Feature", "properties": { "Name": "Gulcoze Villa", "description": null }, "geometry": { "type": "Point", "coordinates": [ 73.4227842, -0.2871963 ] } },
{ "type": "Feature", "properties": { "Name": "Mathiveri", "description": null }, "geometry": { "type": "Point", "coordinates": [ 73.4228593, -0.2872741 ] } },
{ "type": "Feature", "properties": { "Name": "Best", "description": null }, "geometry": { "type": "Point", "coordinates": [ 73.4229827, -0.2874109 ] } },
{ "type": "Feature", "properties": { "Name": "Engaa", "description": null }, "geometry": { "type": "Point", "coordinates": [ 73.4230953, -0.2872527 ] } },
{ "type": "Feature", "properties": { "Name": "Kanduneelamagu", "description": null }, "geometry": { "type": "Point", "coordinates": [ 73.4227815, -0.2875289 ] } },
{ "type": "Feature", "properties": { "Name": "Noaroazuge", "description": "NOAROAZUGE" }, "geometry": { "type": "Point", "coordinates": [ 73.4227493, -0.2878964 ] } },
{ "type": "Feature", "properties": { "Name": "Matharesmaage", "description": null }, "geometry": { "type": "Point", "coordinates": [ 73.4225589, -0.287891 ] } },
{ "type": "Feature", "properties": { "Name": "Moosumbahaaruge", "description": null }, "geometry": { "type": "Point", "coordinates": [ 73.4228647, -0.2880922 ] } },
{ "type": "Feature", "properties": { "Name": "Civilize", "description": null }, "geometry": { "type": "Point", "coordinates": [ 73.4236076, -0.288229 ] } },
{ "type": "Feature", "properties": { "Name": "Gulshaneege", "description": null }, "geometry": { "type": "Point", "coordinates": [ 73.4233555, -0.2881431 ] } },
{ "type": "Feature", "properties": { "Name": "Raiy Lilyge", "description": null }, "geometry": { "type": "Point", "coordinates": [ 73.4236774, -0.2883684 ] } },
{ "type": "Feature", "properties": { "Name": "Nooram", "description": null }, "geometry": { "type": "Point", "coordinates": [ 73.4230658, -0.2884918 ] } },
{ "type": "Feature", "properties": { "Name": "Huvadhumaafeeshi", "description": null }, "geometry": { "type": "Point", "coordinates": [ 73.4232241, -0.288575 ] } },
{ "type": "Feature", "properties": { "Name": "Ginamaage", "description": null }, "geometry": { "type": "Point", "coordinates": [ 73.4233662, -0.2884677 ] } },
{ "type": "Feature", "properties": { "Name": "Muranga Villa", "description": null }, "geometry": { "type": "Point", "coordinates": [ 73.4235004, -0.2883389 ] } },
{ "type": "Feature", "properties": { "Name": "Nafaa", "description": null }, "geometry": { "type": "Point", "coordinates": [ 73.4237659, -0.2884945 ] } },
{ "type": "Feature", "properties": { "Name": "Maavashi", "description": null }, "geometry": { "type": "Point", "coordinates": [ 73.4234896, -0.2887305 ] } },
{ "type": "Feature", "properties": { "Name": "Gullalaage", "description": null }, "geometry": { "type": "Point", "coordinates": [ 73.4234118, -0.2888459 ] } },
{ "type": "Feature", "properties": { "Name": "Aloha", "description": null }, "geometry": { "type": "Point", "coordinates": [ 73.4237257, -0.2887574 ] } },
{ "type": "Feature", "properties": { "Name": "Maaburuge", "description": null }, "geometry": { "type": "Point", "coordinates": [ 73.42379, -0.288811 ] } },
{ "type": "Feature", "properties": { "Name": "Farimaa", "description": null }, "geometry": { "type": "Point", "coordinates": [ 73.4238812, -0.2888807 ] } },
{ "type": "Feature", "properties": { "Name": "Dhondhoomige", "description": null }, "geometry": { "type": "Point", "coordinates": [ 73.4237337, -0.2891034 ] } },
{ "type": "Feature", "properties": { "Name": "Kuveythu", "description": null }, "geometry": { "type": "Point", "coordinates": [ 73.4238571, -0.2891704 ] } },
{ "type": "Feature", "properties": { "Name": "Medhuge", "description": null }, "geometry": { "type": "Point", "coordinates": [ 73.4241226, -0.289149 ] } },
{ "type": "Feature", "properties": { "Name": "Moosan", "description": null }, "geometry": { "type": "Point", "coordinates": [ 73.4239751, -0.2889612 ] } },
{ "type": "Feature", "properties": { "Name": "Oak", "description": null }, "geometry": { "type": "Point", "coordinates": [ 73.4241307, -0.2893421 ] } },
{ "type": "Feature", "properties": { "Name": "Maizan", "description": null }, "geometry": { "type": "Point", "coordinates": [ 73.4242567, -0.2894789 ] } },
{ "type": "Feature", "properties": { "Name": "Niloafaruge", "description": null }, "geometry": { "type": "Point", "coordinates": [ 73.4239375, -0.2895566 ] } },
{ "type": "Feature", "properties": { "Name": "Ambulu", "description": null }, "geometry": { "type": "Point", "coordinates": [ 73.4241387, -0.2895754 ] } },
{ "type": "Feature", "properties": { "Name": "Manaage", "description": null }, "geometry": { "type": "Point", "coordinates": [ 73.4237471, -0.2899214 ] } },
{ "type": "Feature", "properties": { "Name": "Great", "description": null }, "geometry": { "type": "Point", "coordinates": [ 73.4234601, -0.2898678 ] } },
{ "type": "Feature", "properties": { "Name": "Koveli", "description": null }, "geometry": { "type": "Point", "coordinates": [ 73.4231946, -0.2897739 ] } },
{ "type": "Feature", "properties": { "Name": "Maizaandhoshu Villa", "description": null }, "geometry": { "type": "Point", "coordinates": [ 73.4234467, -0.2895808 ] } },
{ "type": "Feature", "properties": { "Name": "Maizaandhoshuge", "description": null }, "geometry": { "type": "Point", "coordinates": [ 73.4235084, -0.2895084 ] } },
{ "type": "Feature", "properties": { "Name": "Athens", "description": null }, "geometry": { "type": "Point", "coordinates": [ 73.4230953, -0.28968 ] } },
{ "type": "Feature", "properties": { "Name": "Mariyaazuge", "description": null }, "geometry": { "type": "Point", "coordinates": [ 73.4229022, -0.2897766 ] } },
{ "type": "Feature", "properties": { "Name": "Kandhilige", "description": null }, "geometry": { "type": "Point", "coordinates": [ 73.4227359, -0.2898651 ] } },
{ "type": "Feature", "properties": { "Name": "Valifeeshi", "description": null }, "geometry": { "type": "Point", "coordinates": [ 73.4230068, -0.2894735 ] } },
{ "type": "Feature", "properties": { "Name": "Olhutherege", "description": null }, "geometry": { "type": "Point", "coordinates": [ 73.422921, -0.2893984 ] } },
{ "type": "Feature", "properties": { "Name": "Velirange", "description": null }, "geometry": { "type": "Point", "coordinates": [ 73.4227601, -0.2889961 ] } },
{ "type": "Feature", "properties": { "Name": "Wishes", "description": null }, "geometry": { "type": "Point", "coordinates": [ 73.4240368, -0.2899563 ] } },
{ "type": "Feature", "properties": { "Name": "Ahigasdhoshuge", "description": null }, "geometry": { "type": "Point", "coordinates": [ 73.4240636, -0.2900663 ] } },
{ "type": "Feature", "properties": { "Name": "Vima", "description": null }, "geometry": { "type": "Point", "coordinates": [ 73.4238732, -0.2901038 ] } },
{ "type": "Feature", "properties": { "Name": "Janburoalumaage", "description": null }, "geometry": { "type": "Point", "coordinates": [ 73.423892, -0.2902835 ] } },
{ "type": "Feature", "properties": { "Name": "Naaibgoathi", "description": null }, "geometry": { "type": "Point", "coordinates": [ 73.423672, -0.2902916 ] } },
{ "type": "Feature", "properties": { "Name": "lafzu", "description": null }, "geometry": { "type": "Point", "coordinates": [ 73.4235299, -0.2904337 ] } },
{ "type": "Feature", "properties": { "Name": "Olex", "description": null }, "geometry": { "type": "Point", "coordinates": [ 73.4234655, -0.2902996 ] } },
{ "type": "Feature", "properties": { "Name": "Amaaz", "description": null }, "geometry": { "type": "Point", "coordinates": [ 73.4237981, -0.290541 ] } },
{ "type": "Feature", "properties": { "Name": "Saadhaage", "description": null }, "geometry": { "type": "Point", "coordinates": [ 73.4239724, -0.2904525 ] } },
{ "type": "Feature", "properties": { "Name": "Florida", "description": null }, "geometry": { "type": "Point", "coordinates": [ 73.4241977, -0.290549 ] } },
{ "type": "Feature", "properties": { "Name": "Murigu", "description": null }, "geometry": { "type": "Point", "coordinates": [ 73.424356, -0.2902594 ] } },
{ "type": "Feature", "properties": { "Name": "Vaifilaage", "description": null }, "geometry": { "type": "Point", "coordinates": [ 73.4244284, -0.2903667 ] } },
{ "type": "Feature", "properties": { "Name": "Roalhi", "description": null }, "geometry": { "type": "Point", "coordinates": [ 73.424466, -0.2901816 ] } },
{ "type": "Feature", "properties": { "Name": "Thufaahuge", "description": null }, "geometry": { "type": "Point", "coordinates": [ 73.4244713, -0.2900126 ] } },
{ "type": "Feature", "properties": { "Name": "Akiri", "description": null }, "geometry": { "type": "Point", "coordinates": [ 73.4243935, -0.2898946 ] } },
{ "type": "Feature", "properties": { "Name": "Dhireylaaluge", "description": null }, "geometry": { "type": "Point", "coordinates": [ 73.4243292, -0.289672 ] } },
{ "type": "Feature", "properties": { "Name": "Hilage", "description": null }, "geometry": { "type": "Point", "coordinates": [ 73.4245867, -0.2898785 ] } },
{ "type": "Feature", "properties": { "Name": "Gomathanage", "description": null }, "geometry": { "type": "Point", "coordinates": [ 73.4245196, -0.2897042 ] } },
{ "type": "Feature", "properties": { "Name": "Oqiu", "description": null }, "geometry": { "type": "Point", "coordinates": [ 73.4247288, -0.290085 ] } },
{ "type": "Feature", "properties": { "Name": "Pleenuge", "description": null }, "geometry": { "type": "Point", "coordinates": [ 73.4247208, -0.2902728 ] } },
{ "type": "Feature", "properties": { "Name": "Dhigidhadige", "description": null }, "geometry": { "type": "Point", "coordinates": [ 73.4248897, -0.2902004 ] } },
{ "type": "Feature", "properties": { "Name": "Shelot", "description": null }, "geometry": { "type": "Point", "coordinates": [ 73.4249246, -0.2904042 ] } },
{ "type": "Feature", "properties": { "Name": "Beehaneege", "description": null }, "geometry": { "type": "Point", "coordinates": [ 73.4250936, -0.2902218 ] } },
{ "type": "Feature", "properties": { "Name": "Lanka", "description": null }, "geometry": { "type": "Point", "coordinates": [ 73.4251741, -0.290313 ] } },
{ "type": "Feature", "properties": { "Name": "Sunny Side", "description": null }, "geometry": { "type": "Point", "coordinates": [ 73.4253082, -0.2903908 ] } },
{ "type": "Feature", "properties": { "Name": "Vieni", "description": null }, "geometry": { "type": "Point", "coordinates": [ 73.4253538, -0.2905169 ] } },
{ "type": "Feature", "properties": { "Name": "Kaamineege", "description": null }, "geometry": { "type": "Point", "coordinates": [ 73.4250319, -0.2904632 ] } },
{ "type": "Feature", "properties": { "Name": "Focus", "description": null }, "geometry": { "type": "Point", "coordinates": [ 73.4251124, -0.2905008 ] } },
{ "type": "Feature", "properties": { "Name": "Sinsear", "description": null }, "geometry": { "type": "Point", "coordinates": [ 73.4252197, -0.290592 ] } },
{ "type": "Feature", "properties": { "Name": "Zamhareeruge", "description": null }, "geometry": { "type": "Point", "coordinates": [ 73.4253269, -0.2907261 ] } },
{ "type": "Feature", "properties": { "Name": "Velidhoo", "description": null }, "geometry": { "type": "Point", "coordinates": [ 73.4255496, -0.2907207 ] } },
{ "type": "Feature", "properties": { "Name": "Gofi", "description": null }, "geometry": { "type": "Point", "coordinates": [ 73.4256622, -0.290836 ] } },
{ "type": "Feature", "properties": { "Name": "Kumereege", "description": null }, "geometry": { "type": "Point", "coordinates": [ 73.4254825, -0.2909111 ] } },
{ "type": "Feature", "properties": { "Name": "Viugaa", "description": null }, "geometry": { "type": "Point", "coordinates": [ 73.4255522, -0.2909674 ] } },
{ "type": "Feature", "properties": { "Name": "Oltan", "description": null }, "geometry": { "type": "Point", "coordinates": [ 73.4254691, -0.2911445 ] } },
{ "type": "Feature", "properties": { "Name": "Nasfaru", "description": null }, "geometry": { "type": "Point", "coordinates": [ 73.4254235, -0.291292 ] } },
{ "type": "Feature", "properties": { "Name": "Fonimaage", "description": null }, "geometry": { "type": "Point", "coordinates": [ 73.4251311, -0.291225 ] } },
{ "type": "Feature", "properties": { "Name": "Oshanimaage", "description": null }, "geometry": { "type": "Point", "coordinates": [ 73.4256354, -0.291056 ] } },
{ "type": "Feature", "properties": { "Name": "Dhahafagedharu", "description": null }, "geometry": { "type": "Point", "coordinates": [ 73.4246108, -0.2904981 ] } },
{ "type": "Feature", "properties": { "Name": "Saimaage", "description": null }, "geometry": { "type": "Point", "coordinates": [ 73.4245732, -0.2907261 ] } },
{ "type": "Feature", "properties": { "Name": "Sham House", "description": null }, "geometry": { "type": "Point", "coordinates": [ 73.4247234, -0.2906402 ] } },
{ "type": "Feature", "properties": { "Name": "Dholhabuge", "description": null }, "geometry": { "type": "Point", "coordinates": [ 73.4246027, -0.2909648 ] } },
{ "type": "Feature", "properties": { "Name": "Aimaage", "description": null }, "geometry": { "type": "Point", "coordinates": [ 73.4248093, -0.2909862 ] } },
{ "type": "Feature", "properties": { "Name": "Venis", "description": null }, "geometry": { "type": "Point", "coordinates": [ 73.4243184, -0.2911177 ] } },
{ "type": "Feature", "properties": { "Name": "Happy Night", "description": null }, "geometry": { "type": "Point", "coordinates": [ 73.4244794, -0.2912223 ] } },
{ "type": "Feature", "properties": { "Name": "Happy Dawn", "description": null }, "geometry": { "type": "Point", "coordinates": [ 73.4246349, -0.2913644 ] } },
{ "type": "Feature", "properties": { "Name": "Fonithulaage", "description": null }, "geometry": { "type": "Point", "coordinates": [ 73.4248093, -0.2912679 ] } },
{ "type": "Feature", "properties": { "Name": "Blue Rose", "description": null }, "geometry": { "type": "Point", "coordinates": [ 73.4246376, -0.2915066 ] } },
{ "type": "Feature", "properties": { "Name": "Huraage", "description": null }, "geometry": { "type": "Point", "coordinates": [ 73.4246215, -0.2916112 ] } },
{ "type": "Feature", "properties": { "Name": "Iburah", "description": null }, "geometry": { "type": "Point", "coordinates": [ 73.4248066, -0.2917104 ] } },
{ "type": "Feature", "properties": { "Name": "Jeal", "description": null }, "geometry": { "type": "Point", "coordinates": [ 73.4249434, -0.2917855 ] } },
{ "type": "Feature", "properties": { "Name": "Vanillage", "description": null }, "geometry": { "type": "Point", "coordinates": [ 73.4250534, -0.291689 ] } },
{ "type": "Feature", "properties": { "Name": "Revimaage", "description": null }, "geometry": { "type": "Point", "coordinates": [ 73.4249836, -0.2920135 ] } },
{ "type": "Feature", "properties": { "Name": "Iolite", "description": null }, "geometry": { "type": "Point", "coordinates": [ 73.4251258, -0.2919974 ] } },
{ "type": "Feature", "properties": { "Name": "Fusfaru", "description": null }, "geometry": { "type": "Point", "coordinates": [ 73.4244499, -0.2914422 ] } },
{ "type": "Feature", "properties": { "Name": "Neeleesithaaraa", "description": null }, "geometry": { "type": "Point", "coordinates": [ 73.4243077, -0.2914583 ] } },
{ "type": "Feature", "properties": { "Name": "Niyaz", "description": null }, "geometry": { "type": "Point", "coordinates": [ 73.4241146, -0.291528 ] } },
{ "type": "Feature", "properties": { "Name": "Familyge", "description": null }, "geometry": { "type": "Point", "coordinates": [ 73.4241334, -0.2916756 ] } },
{ "type": "Feature", "properties": { "Name": "Reynis", "description": null }, "geometry": { "type": "Point", "coordinates": [ 73.4239805, -0.2916407 ] } },
{ "type": "Feature", "properties": { "Name": "Rauza", "description": null }, "geometry": { "type": "Point", "coordinates": [ 73.4238356, -0.2916461 ] } },
{ "type": "Feature", "properties": { "Name": "Madihera", "description": null }, "geometry": { "type": "Point", "coordinates": [ 73.4237283, -0.2916568 ] } },
{ "type": "Feature", "properties": { "Name": "Fehiali", "description": null }, "geometry": { "type": "Point", "coordinates": [ 73.4236693, -0.2915629 ] } },
{ "type": "Feature", "properties": { "Name": "Garaadyge", "description": null }, "geometry": { "type": "Point", "coordinates": [ 73.4235245, -0.2915736 ] } },
{ "type": "Feature", "properties": { "Name": "Jazeera", "description": null }, "geometry": { "type": "Point", "coordinates": [ 73.4234601, -0.291689 ] } },
{ "type": "Feature", "properties": { "Name": "White Rose", "description": null }, "geometry": { "type": "Point", "coordinates": [ 73.4232375, -0.2917077 ] } },
{ "type": "Feature", "properties": { "Name": "Madadhevige", "description": null }, "geometry": { "type": "Point", "coordinates": [ 73.4232885, -0.2915763 ] } },
{ "type": "Feature", "properties": { "Name": "Beljiumge", "description": null }, "geometry": { "type": "Point", "coordinates": [ 73.4233877, -0.2918258 ] } },
{ "type": "Feature", "properties": { "Name": "Vaarutha", "description": null }, "geometry": { "type": "Point", "coordinates": [ 73.4235862, -0.2918687 ] } },
{ "type": "Feature", "properties": { "Name": "Hudhuhudhaage", "description": null }, "geometry": { "type": "Point", "coordinates": [ 73.423849, -0.2912196 ] } },
{ "type": "Feature", "properties": { "Name": "Saadhaamanzil", "description": null }, "geometry": { "type": "Point", "coordinates": [ 73.4238008, -0.2910372 ] } },
{ "type": "Feature", "properties": { "Name": "Endherimaage", "description": null }, "geometry": { "type": "Point", "coordinates": [ 73.423672, -0.2907797 ] } },
{ "type": "Feature", "properties": { "Name": "Fehifarudhaage", "description": null }, "geometry": { "type": "Point", "coordinates": [ 73.4235486, -0.2906161 ] } },
{ "type": "Feature", "properties": { "Name": "Jahaamugurige", "description": null }, "geometry": { "type": "Point", "coordinates": [ 73.4234682, -0.290769 ] } },
{ "type": "Feature", "properties": { "Name": "Hiyaleege", "description": null }, "geometry": { "type": "Point", "coordinates": [ 73.4235406, -0.2909165 ] } },
{ "type": "Feature", "properties": { "Name": "Saasaryge", "description": null }, "geometry": { "type": "Point", "coordinates": [ 73.423377, -0.290887 ] } },
{ "type": "Feature", "properties": { "Name": "Life", "description": null }, "geometry": { "type": "Point", "coordinates": [ 73.4234521, -0.2914127 ] } },
{ "type": "Feature", "properties": { "Name": "Hastee", "description": null }, "geometry": { "type": "Point", "coordinates": [ 73.4232617, -0.2913912 ] } },
{ "type": "Feature", "properties": { "Name": "Sinamaage", "description": null }, "geometry": { "type": "Point", "coordinates": [ 73.4232536, -0.2911794 ] } },
{ "type": "Feature", "properties": { "Name": "Saamaraage", "description": null }, "geometry": { "type": "Point", "coordinates": [ 73.4234387, -0.2913108 ] } },
{ "type": "Feature", "properties": { "Name": "Ehmulimaage", "description": null }, "geometry": { "type": "Point", "coordinates": [ 73.4234092, -0.2911364 ] } },
{ "type": "Feature", "properties": { "Name": "Yaafaa", "description": null }, "geometry": { "type": "Point", "coordinates": [ 73.4230819, -0.2914181 ] } },
{ "type": "Feature", "properties": { "Name": "Seena", "description": null }, "geometry": { "type": "Point", "coordinates": [ 73.4231088, -0.2910533 ] } },
{ "type": "Feature", "properties": { "Name": "Uraage", "description": null }, "geometry": { "type": "Point", "coordinates": [ 73.4229612, -0.2912759 ] } },
{ "type": "Feature", "properties": { "Name": "Zeenathmanzil", "description": null }, "geometry": { "type": "Point", "coordinates": [ 73.4223765, -0.291064 ] } },
{ "type": "Feature", "properties": { "Name": "Janbumaage", "description": null }, "geometry": { "type": "Point", "coordinates": [ 73.4224918, -0.2912491 ] } },
{ "type": "Feature", "properties": { "Name": "Haasil", "description": null }, "geometry": { "type": "Point", "coordinates": [ 73.4223872, -0.2914288 ] } },
{ "type": "Feature", "properties": { "Name": "Malaagaa", "description": null }, "geometry": { "type": "Point", "coordinates": [ 73.4225616, -0.2910828 ] } },
{ "type": "Feature", "properties": { "Name": "Dhunnikage", "description": null }, "geometry": { "type": "Point", "coordinates": [ 73.4226742, -0.2910801 ] } },
{ "type": "Feature", "properties": { "Name": "Ummeedhu", "description": null }, "geometry": { "type": "Point", "coordinates": [ 73.4227332, -0.291225 ] } },
{ "type": "Feature", "properties": { "Name": "Anbulhage", "description": null }, "geometry": { "type": "Point", "coordinates": [ 73.4228083, -0.2908226 ] } },
{ "type": "Feature", "properties": { "Name": "Merida", "description": null }, "geometry": { "type": "Point", "coordinates": [ 73.4230444, -0.2908548 ] } },
{ "type": "Feature", "properties": { "Name": "Maunaa", "description": null }, "geometry": { "type": "Point", "coordinates": [ 73.4232509, -0.2907422 ] } },
{ "type": "Feature", "properties": { "Name": "Ochid", "description": null }, "geometry": { "type": "Point", "coordinates": [ 73.4226206, -0.2916139 ] } },
{ "type": "Feature", "properties": { "Name": "Fahamali", "description": null }, "geometry": { "type": "Point", "coordinates": [ 73.4227735, -0.2918231 ] } },
{ "type": "Feature", "properties": { "Name": "Sheeriazuge", "description": null }, "geometry": { "type": "Point", "coordinates": [ 73.4229237, -0.292035 ] } },
{ "type": "Feature", "properties": { "Name": "Hulhehi", "description": null }, "geometry": { "type": "Point", "coordinates": [ 73.4231034, -0.2919143 ] } },
{ "type": "Feature", "properties": { "Name": "Vooster", "description": null }, "geometry": { "type": "Point", "coordinates": [ 73.4231329, -0.2918392 ] } },
{ "type": "Feature", "properties": { "Name": "Boashige", "description": null }, "geometry": { "type": "Point", "coordinates": [ 73.4231812, -0.2918124 ] } },
{ "type": "Feature", "properties": { "Name": "Handhage", "description": null }, "geometry": { "type": "Point", "coordinates": [ 73.4232643, -0.291984 ] } },
{ "type": "Feature", "properties": { "Name": "Ithaa", "description": null }, "geometry": { "type": "Point", "coordinates": [ 73.4232295, -0.2920833 ] } },
{ "type": "Feature", "properties": { "Name": "Rihidhoolage", "description": null }, "geometry": { "type": "Point", "coordinates": [ 73.4232026, -0.2922764 ] } },
{ "type": "Feature", "properties": { "Name": "Ishaa", "description": null }, "geometry": { "type": "Point", "coordinates": [ 73.4233475, -0.2922978 ] } },
{ "type": "Feature", "properties": { "Name": "Binmaage", "description": null }, "geometry": { "type": "Point", "coordinates": [ 73.4234601, -0.2922683 ] } },
{ "type": "Feature", "properties": { "Name": "Asseyri Manzil", "description": null }, "geometry": { "type": "Point", "coordinates": [ 73.4256005, -0.2916058 ] } },
{ "type": "Feature", "properties": { "Name": "Asserige", "description": null }, "geometry": { "type": "Point", "coordinates": [ 73.4257963, -0.2916568 ] } },
{ "type": "Feature", "properties": { "Name": "Fengadikedege", "description": null }, "geometry": { "type": "Point", "coordinates": [ 73.425909, -0.2919304 ] } },
{ "type": "Feature", "properties": { "Name": "Dhanbuge", "description": null }, "geometry": { "type": "Point", "coordinates": [ 73.4260565, -0.291933 ] } },
{ "type": "Feature", "properties": { "Name": "Ice Creame Ge", "description": null }, "geometry": { "type": "Point", "coordinates": [ 73.4260806, -0.2917641 ] } },
{ "type": "Feature", "properties": { "Name": "Asserivaadhee", "description": null }, "geometry": { "type": "Point", "coordinates": [ 73.4258741, -0.29152 ] } },
{ "type": "Feature", "properties": { "Name": "Vaigadhage", "description": null }, "geometry": { "type": "Point", "coordinates": [ 73.4258875, -0.291284 ] } },
{ "type": "Feature", "properties": { "Name": "Civia", "description": null }, "geometry": { "type": "Point", "coordinates": [ 73.4264749, -0.2916809 ] } },
{ "type": "Feature", "properties": { "Name": "Boaganvila", "description": null }, "geometry": { "type": "Point", "coordinates": [ 73.4264106, -0.291571 ] } },
{ "type": "Feature", "properties": { "Name": "Vaffaru", "description": null }, "geometry": { "type": "Point", "coordinates": [ 73.4263033, -0.2914368 ] } },
{ "type": "Feature", "properties": { "Name": "Osaca", "description": null }, "geometry": { "type": "Point", "coordinates": [ 73.4262067, -0.2913188 ] } },
{ "type": "Feature", "properties": { "Name": "Neelam", "description": null }, "geometry": { "type": "Point", "coordinates": [ 73.4259707, -0.2910962 ] } },
{ "type": "Feature", "properties": { "Name": "Sweden", "description": null }, "geometry": { "type": "Point", "coordinates": [ 73.4258366, -0.291005 ] } },
{ "type": "Feature", "properties": { "Name": "Kethi", "description": null }, "geometry": { "type": "Point", "coordinates": [ 73.4223604, -0.2916192 ] } },
{ "type": "Feature", "properties": { "Name": "Rule", "description": null }, "geometry": { "type": "Point", "coordinates": [ 73.4222773, -0.2917828 ] } },
{ "type": "Feature", "properties": { "Name": "Hathihaa", "description": null }, "geometry": { "type": "Point", "coordinates": [ 73.4222665, -0.2919223 ] } },
{ "type": "Feature", "properties": { "Name": "Sunrayvilla", "description": null }, "geometry": { "type": "Point", "coordinates": [ 73.4221646, -0.2920645 ] } },
{ "type": "Feature", "properties": { "Name": "Kurudhumaa", "description": null }, "geometry": { "type": "Point", "coordinates": [ 73.4223095, -0.2921959 ] } },
{ "type": "Feature", "properties": { "Name": "Mugurige", "description": null }, "geometry": { "type": "Point", "coordinates": [ 73.4224623, -0.2921503 ] } },
{ "type": "Feature", "properties": { "Name": "Quest", "description": null }, "geometry": { "type": "Point", "coordinates": [ 73.4229398, -0.2923648 ] } },
{ "type": "Feature", "properties": { "Name": "Rahbageechaage", "description": null }, "geometry": { "type": "Point", "coordinates": [ 73.4228727, -0.2922978 ] } },
{ "type": "Feature", "properties": { "Name": "Haifaa", "description": null }, "geometry": { "type": "Point", "coordinates": [ 73.422795, -0.2921771 ] } },
{ "type": "Feature", "properties": { "Name": "Bodumaguge", "description": null }, "geometry": { "type": "Point", "coordinates": [ 73.4226367, -0.2919599 ] } },
{ "type": "Feature", "properties": { "Name": "Heylhi", "description": null }, "geometry": { "type": "Point", "coordinates": [ 73.4227252, -0.292102 ] } },
{ "type": "Feature", "properties": { "Name": "Anas Manzil", "description": null }, "geometry": { "type": "Point", "coordinates": [ 73.4224489, -0.2917721 ] } },
{ "type": "Feature", "properties": { "Name": "Sithura", "description": null }, "geometry": { "type": "Point", "coordinates": [ 73.4236613, -0.2904498 ] } },
{ "type": "Feature", "properties": { "Name": "Melbourne", "description": null }, "geometry": { "type": "Point", "coordinates": [ 73.4253967, -0.2908334 ] } },
{ "type": "Feature", "properties": { "Name": "Niyadhurumaage", "description": null }, "geometry": { "type": "Point", "coordinates": [ 73.4240462, -0.2902298 ] } },
{ "type": "Feature", "properties": { "Name": "Everton", "description": null }, "geometry": { "type": "Point", "coordinates": [ 73.4202388, -0.2835834 ] } },
{ "type": "Feature", "properties": { "Name": "Gnamgnamge", "description": "Gnamgnamge" }, "geometry": { "type": "Point", "coordinates": [ 73.4211172, -0.284604 ] } }
]
}
