{
"type": "FeatureCollection",
"name": "Malegan",
"crs": { "type": "name", "properties": { "name": "urn:ogc:def:crs:OGC:1.3:CRS84" } },
"features": [
{ "type": "Feature", "properties": { "Name": "Helabelige", "description": null }, "geometry": { "type": "Point", "coordinates": [ 73.4281513, -0.2946903 ] } },
{ "type": "Feature", "properties": { "Name": "Courtmaage", "description": null }, "geometry": { "type": "Point", "coordinates": [ 73.4281272, -0.2952938 ] } },
{ "type": "Feature", "properties": { "Name": "Veedhadu", "description": null }, "geometry": { "type": "Point", "coordinates": [ 73.4283337, -0.2955379 ] } },
{ "type": "Feature", "properties": { "Name": "Havaana", "description": null }, "geometry": { "type": "Point", "coordinates": [ 73.4283713, -0.2951409 ] } },
{ "type": "Feature", "properties": { "Name": "Jidhdhaa", "description": null }, "geometry": { "type": "Point", "coordinates": [ 73.4287521, -0.2949585 ] } },
{ "type": "Feature", "properties": { "Name": "Shim Shine", "description": null }, "geometry": { "type": "Point", "coordinates": [ 73.4285456, -0.2950524 ] } },
{ "type": "Feature", "properties": { "Name": "Mooni", "description": null }, "geometry": { "type": "Point", "coordinates": [ 73.4282345, -0.2949907 ] } },
{ "type": "Feature", "properties": { "Name": "Dheylige", "description": null }, "geometry": { "type": "Point", "coordinates": [ 73.4285322, -0.2947922 ] } },
{ "type": "Feature", "properties": { "Name": "Huvandhumaage", "description": null }, "geometry": { "type": "Point", "coordinates": [ 73.4286931, -0.2950202 ] } },
{ "type": "Feature", "properties": { "Name": "Dhondhuburuge", "description": null }, "geometry": { "type": "Point", "coordinates": [ 73.4285939, -0.2943094 ] } },
{ "type": "Feature", "properties": { "Name": "Hikari", "description": null }, "geometry": { "type": "Point", "coordinates": [ 73.4290338, -0.2944972 ] } },
{ "type": "Feature", "properties": { "Name": "Sandhubarakage", "description": null }, "geometry": { "type": "Point", "coordinates": [ 73.4279609, -0.2954091 ] } },
{ "type": "Feature", "properties": { "Name": "Mark", "description": null }, "geometry": { "type": "Point", "coordinates": [ 73.4284839, -0.2942022 ] } },
{ "type": "Feature", "properties": { "Name": "Huruadi", "description": null }, "geometry": { "type": "Point", "coordinates": [ 73.4341568, -0.3000493 ] } },
{ "type": "Feature", "properties": { "Name": "New Moon", "description": null }, "geometry": { "type": "Point", "coordinates": [ 73.4339932, -0.3001351 ] } },
{ "type": "Feature", "properties": { "Name": "Love Side", "description": null }, "geometry": { "type": "Point", "coordinates": [ 73.4340817, -0.2999474 ] } },
{ "type": "Feature", "properties": { "Name": "Beleez", "description": null }, "geometry": { "type": "Point", "coordinates": [ 73.4341782, -0.2998616 ] } },
{ "type": "Feature", "properties": { "Name": "Maakolhu", "description": null }, "geometry": { "type": "Point", "coordinates": [ 73.4337598, -0.3002558 ] } },
{ "type": "Feature", "properties": { "Name": "Meerange", "description": null }, "geometry": { "type": "Point", "coordinates": [ 73.433218, -0.3004141 ] } },
{ "type": "Feature", "properties": { "Name": "Dhandikosheege", "description": null }, "geometry": { "type": "Point", "coordinates": [ 73.4335855, -0.3000654 ] } },
{ "type": "Feature", "properties": { "Name": "Ziyaarahfannuge", "description": "Ziyaarahfannuge" }, "geometry": { "type": "Point", "coordinates": [ 73.433792, -0.2998803 ] } },
{ "type": "Feature", "properties": { "Name": "Peal", "description": null }, "geometry": { "type": "Point", "coordinates": [ 73.4340897, -0.2996899 ] } },
{ "type": "Feature", "properties": { "Name": "Sausan", "description": null }, "geometry": { "type": "Point", "coordinates": [ 73.4339395, -0.2997087 ] } },
{ "type": "Feature", "properties": { "Name": "Search", "description": null }, "geometry": { "type": "Point", "coordinates": [ 73.4340146, -0.2995558 ] } },
{ "type": "Feature", "properties": { "Name": "Relish", "description": null }, "geometry": { "type": "Point", "coordinates": [ 73.4339181, -0.2994431 ] } },
{ "type": "Feature", "properties": { "Name": "Cute Garden", "description": null }, "geometry": { "type": "Point", "coordinates": [ 73.4338376, -0.2992634 ] } },
{ "type": "Feature", "properties": { "Name": "Motion", "description": null }, "geometry": { "type": "Point", "coordinates": [ 73.4338108, -0.2995156 ] } },
{ "type": "Feature", "properties": { "Name": "Reef", "description": null }, "geometry": { "type": "Point", "coordinates": [ 73.4337679, -0.2994431 ] } },
{ "type": "Feature", "properties": { "Name": "Hudhanbaruge", "description": null }, "geometry": { "type": "Point", "coordinates": [ 73.4335291, -0.2994592 ] } },
{ "type": "Feature", "properties": { "Name": "Kashikuburumaage", "description": null }, "geometry": { "type": "Point", "coordinates": [ 73.4334353, -0.2995665 ] } },
{ "type": "Feature", "properties": { "Name": "Kumanni", "description": null }, "geometry": { "type": "Point", "coordinates": [ 73.4333414, -0.2996282 ] } },
{ "type": "Feature", "properties": { "Name": "Thrush", "description": null }, "geometry": { "type": "Point", "coordinates": [ 73.4337866, -0.299191 ] } },
{ "type": "Feature", "properties": { "Name": "Dhaareege", "description": null }, "geometry": { "type": "Point", "coordinates": [ 73.4337169, -0.299714 ] } },
{ "type": "Feature", "properties": { "Name": "Onset", "description": null }, "geometry": { "type": "Point", "coordinates": [ 73.4336525, -0.2996362 ] } },
{ "type": "Feature", "properties": { "Name": "Dhaaryvilla", "description": null }, "geometry": { "type": "Point", "coordinates": [ 73.4335479, -0.2997194 ] } },
{ "type": "Feature", "properties": { "Name": "Kafurutholige", "description": null }, "geometry": { "type": "Point", "coordinates": [ 73.4333628, -0.299832 ] } },
{ "type": "Feature", "properties": { "Name": "Gongaleege", "description": null }, "geometry": { "type": "Point", "coordinates": [ 73.4336579, -0.2992795 ] } },
{ "type": "Feature", "properties": { "Name": "Navaz House", "description": null }, "geometry": { "type": "Point", "coordinates": [ 73.4333923, -0.2993868 ] } },
{ "type": "Feature", "properties": { "Name": "Zubaan", "description": null }, "geometry": { "type": "Point", "coordinates": [ 73.4336552, -0.2990542 ] } },
{ "type": "Feature", "properties": { "Name": "Venus Aage", "description": null }, "geometry": { "type": "Point", "coordinates": [ 73.4334835, -0.2990033 ] } },
{ "type": "Feature", "properties": { "Name": "Dimus", "description": null }, "geometry": { "type": "Point", "coordinates": [ 73.4333816, -0.2992232 ] } },
{ "type": "Feature", "properties": { "Name": "Maafahi", "description": null }, "geometry": { "type": "Point", "coordinates": [ 73.4331939, -0.299309 ] } },
{ "type": "Feature", "properties": { "Name": "Elish", "description": null }, "geometry": { "type": "Point", "coordinates": [ 73.4330866, -0.2992473 ] } },
{ "type": "Feature", "properties": { "Name": "Frummaage", "description": null }, "geometry": { "type": "Point", "coordinates": [ 73.433167, -0.2991454 ] } },
{ "type": "Feature", "properties": { "Name": "Metic", "description": null }, "geometry": { "type": "Point", "coordinates": [ 73.4332663, -0.2990945 ] } },
{ "type": "Feature", "properties": { "Name": "Aluvimaage", "description": null }, "geometry": { "type": "Point", "coordinates": [ 73.4331322, -0.2988665 ] } },
{ "type": "Feature", "properties": { "Name": "Mall", "description": null }, "geometry": { "type": "Point", "coordinates": [ 73.4333602, -0.2988289 ] } },
{ "type": "Feature", "properties": { "Name": "Mailaa", "description": null }, "geometry": { "type": "Point", "coordinates": [ 73.4333038, -0.2987565 ] } },
{ "type": "Feature", "properties": { "Name": "Ranfas", "description": null }, "geometry": { "type": "Point", "coordinates": [ 73.4331429, -0.2985205 ] } },
{ "type": "Feature", "properties": { "Name": "Shady Rest", "description": null }, "geometry": { "type": "Point", "coordinates": [ 73.4328988, -0.2986438 ] } },
{ "type": "Feature", "properties": { "Name": "Rishthaa", "description": null }, "geometry": { "type": "Point", "coordinates": [ 73.4327513, -0.2985661 ] } },
{ "type": "Feature", "properties": { "Name": "Maaleyge", "description": null }, "geometry": { "type": "Point", "coordinates": [ 73.4328532, -0.298448 ] } },
{ "type": "Feature", "properties": { "Name": "Seeko", "description": null }, "geometry": { "type": "Point", "coordinates": [ 73.4326735, -0.2989898 ] } },
{ "type": "Feature", "properties": { "Name": "Haathif", "description": null }, "geometry": { "type": "Point", "coordinates": [ 73.4325609, -0.2988611 ] } },
{ "type": "Feature", "properties": { "Name": "Haanees", "description": null }, "geometry": { "type": "Point", "coordinates": [ 73.4324643, -0.2989416 ] } },
{ "type": "Feature", "properties": { "Name": "Thashimushige", "description": null }, "geometry": { "type": "Point", "coordinates": [ 73.4323516, -0.2991561 ] } },
{ "type": "Feature", "properties": { "Name": "Haagoage", "description": null }, "geometry": { "type": "Point", "coordinates": [ 73.4321746, -0.2989389 ] } },
{ "type": "Feature", "properties": { "Name": "Nio", "description": null }, "geometry": { "type": "Point", "coordinates": [ 73.433049, -0.2983569 ] } },
{ "type": "Feature", "properties": { "Name": "Sheriff", "description": null }, "geometry": { "type": "Point", "coordinates": [ 73.4330088, -0.2982469 ] } },
{ "type": "Feature", "properties": { "Name": "Space", "description": null }, "geometry": { "type": "Point", "coordinates": [ 73.4329364, -0.2981262 ] } },
{ "type": "Feature", "properties": { "Name": "Beach View\n", "description": null }, "geometry": { "type": "Point", "coordinates": [ 73.4328586, -0.2980296 ] } },
{ "type": "Feature", "properties": { "Name": "Blue Heaven", "description": null }, "geometry": { "type": "Point", "coordinates": [ 73.4327084, -0.298212 ] } },
{ "type": "Feature", "properties": { "Name": "Zithaa", "description": null }, "geometry": { "type": "Point", "coordinates": [ 73.4324991, -0.2984078 ] } },
{ "type": "Feature", "properties": { "Name": "Hudhuvilaage", "description": null }, "geometry": { "type": "Point", "coordinates": [ 73.432357, -0.2983434 ] } },
{ "type": "Feature", "properties": { "Name": "Oneez", "description": null }, "geometry": { "type": "Point", "coordinates": [ 73.4326118, -0.2980645 ] } },
{ "type": "Feature", "properties": { "Name": "Magumatheege", "description": null }, "geometry": { "type": "Point", "coordinates": [ 73.4324643, -0.2979331 ] } },
{ "type": "Feature", "properties": { "Name": "Rivethi", "description": null }, "geometry": { "type": "Point", "coordinates": [ 73.4327325, -0.2978365 ] } },
{ "type": "Feature", "properties": { "Name": "Rain View", "description": null }, "geometry": { "type": "Point", "coordinates": [ 73.4326574, -0.2977453 ] } },
{ "type": "Feature", "properties": { "Name": "Niruvaan", "description": null }, "geometry": { "type": "Point", "coordinates": [ 73.4325823, -0.2976219 ] } },
{ "type": "Feature", "properties": { "Name": "Bluejavvu", "description": null }, "geometry": { "type": "Point", "coordinates": [ 73.4323785, -0.2976809 ] } },
{ "type": "Feature", "properties": { "Name": "Havitha", "description": null }, "geometry": { "type": "Point", "coordinates": [ 73.432247, -0.2977319 ] } },
{ "type": "Feature", "properties": { "Name": "White Pearl", "description": null }, "geometry": { "type": "Point", "coordinates": [ 73.4321344, -0.2977963 ] } },
{ "type": "Feature", "properties": { "Name": "Dilskusaage", "description": null }, "geometry": { "type": "Point", "coordinates": [ 73.4318286, -0.2979787 ] } },
{ "type": "Feature", "properties": { "Name": "Mezo", "description": null }, "geometry": { "type": "Point", "coordinates": [ 73.4318742, -0.2978204 ] } },
{ "type": "Feature", "properties": { "Name": "Mongoliya", "description": null }, "geometry": { "type": "Point", "coordinates": [ 73.4319172, -0.2977265 ] } },
{ "type": "Feature", "properties": { "Name": "Emaa", "description": null }, "geometry": { "type": "Point", "coordinates": [ 73.4319734, -0.2976595 ] } },
{ "type": "Feature", "properties": { "Name": "Eyblee", "description": null }, "geometry": { "type": "Point", "coordinates": [ 73.43207, -0.2975978 ] } },
{ "type": "Feature", "properties": { "Name": "Blue Manzil", "description": null }, "geometry": { "type": "Point", "coordinates": [ 73.4321854, -0.2974744 ] } },
{ "type": "Feature", "properties": { "Name": "Tulip", "description": null }, "geometry": { "type": "Point", "coordinates": [ 73.432408, -0.2974261 ] } },
{ "type": "Feature", "properties": { "Name": "Melo", "description": null }, "geometry": { "type": "Point", "coordinates": [ 73.4320298, -0.297343 ] } },
{ "type": "Feature", "properties": { "Name": "Vinavi", "description": null }, "geometry": { "type": "Point", "coordinates": [ 73.432247, -0.2972813 ] } },
{ "type": "Feature", "properties": { "Name": "Rhine", "description": null }, "geometry": { "type": "Point", "coordinates": [ 73.4321585, -0.2971874 ] } },
{ "type": "Feature", "properties": { "Name": "Kothange", "description": null }, "geometry": { "type": "Point", "coordinates": [ 73.4318313, -0.2974636 ] } },
{ "type": "Feature", "properties": { "Name": "Shady House", "description": null }, "geometry": { "type": "Point", "coordinates": [ 73.4313914, -0.2975442 ] } },
{ "type": "Feature", "properties": { "Name": "Elhevalige", "description": null }, "geometry": { "type": "Point", "coordinates": [ 73.4312573, -0.2977534 ] } },
{ "type": "Feature", "properties": { "Name": "Dhanbugasdhoshuge", "description": null }, "geometry": { "type": "Point", "coordinates": [ 73.4312734, -0.2981047 ] } },
{ "type": "Feature", "properties": { "Name": "Highway", "description": null }, "geometry": { "type": "Point", "coordinates": [ 73.4319976, -0.2970372 ] } },
{ "type": "Feature", "properties": { "Name": "Leaf", "description": null }, "geometry": { "type": "Point", "coordinates": [ 73.4318527, -0.2969326 ] } },
{ "type": "Feature", "properties": { "Name": "Fenaathuru", "description": null }, "geometry": { "type": "Point", "coordinates": [ 73.4316731, -0.2970936 ] } },
{ "type": "Feature", "properties": { "Name": "Maavina", "description": null }, "geometry": { "type": "Point", "coordinates": [ 73.4314612, -0.2968817 ] } },
{ "type": "Feature", "properties": { "Name": "Maathila", "description": null }, "geometry": { "type": "Point", "coordinates": [ 73.4316302, -0.2970479 ] } },
{ "type": "Feature", "properties": { "Name": "Zelish", "description": null }, "geometry": { "type": "Point", "coordinates": [ 73.4311768, -0.2970614 ] } },
{ "type": "Feature", "properties": { "Name": "Kukumaage", "description": null }, "geometry": { "type": "Point", "coordinates": [ 73.4311393, -0.2972974 ] } },
{ "type": "Feature", "properties": { "Name": "Maathila", "description": null }, "geometry": { "type": "Point", "coordinates": [ 73.4313914, -0.296828 ] } },
{ "type": "Feature", "properties": { "Name": "Mahaa", "description": null }, "geometry": { "type": "Point", "coordinates": [ 73.431665, -0.2967878 ] } },
{ "type": "Feature", "properties": { "Name": "Nathyjaa", "description": null }, "geometry": { "type": "Point", "coordinates": [ 73.4315738, -0.2967127 ] } },
{ "type": "Feature", "properties": { "Name": "Rugadige", "description": null }, "geometry": { "type": "Point", "coordinates": [ 73.4312654, -0.2967395 ] } },
{ "type": "Feature", "properties": { "Name": "Karam", "description": null }, "geometry": { "type": "Point", "coordinates": [ 73.4314182, -0.2966027 ] } },
{ "type": "Feature", "properties": { "Name": "Muragamaage", "description": null }, "geometry": { "type": "Point", "coordinates": [ 73.4312198, -0.296651 ] } },
{ "type": "Feature", "properties": { "Name": "Aalishaan", "description": null }, "geometry": { "type": "Point", "coordinates": [ 73.4313431, -0.2965088 ] } },
{ "type": "Feature", "properties": { "Name": "Buravo", "description": null }, "geometry": { "type": "Point", "coordinates": [ 73.4311152, -0.2965759 ] } },
{ "type": "Feature", "properties": { "Name": "Iraakuge", "description": null }, "geometry": { "type": "Point", "coordinates": [ 73.4308684, -0.2966564 ] } },
{ "type": "Feature", "properties": { "Name": "Vinvee\n", "description": null }, "geometry": { "type": "Point", "coordinates": [ 73.4309676, -0.2967395 ] } },
{ "type": "Feature", "properties": { "Name": "Goaran", "description": null }, "geometry": { "type": "Point", "coordinates": [ 73.4311715, -0.2968548 ] } },
{ "type": "Feature", "properties": { "Name": "Feeshigandige", "description": null }, "geometry": { "type": "Point", "coordinates": [ 73.4307772, -0.2970345 ] } },
{ "type": "Feature", "properties": { "Name": "Orchid Villa", "description": null }, "geometry": { "type": "Point", "coordinates": [ 73.4309059, -0.2963613 ] } },
{ "type": "Feature", "properties": { "Name": "Kiran", "description": null }, "geometry": { "type": "Point", "coordinates": [ 73.4312466, -0.2964203 ] } },
{ "type": "Feature", "properties": { "Name": "Raven", "description": null }, "geometry": { "type": "Point", "coordinates": [ 73.4310052, -0.2962058 ] } },
{ "type": "Feature", "properties": { "Name": "Dheyha", "description": null }, "geometry": { "type": "Point", "coordinates": [ 73.4309167, -0.2961494 ] } },
{ "type": "Feature", "properties": { "Name": "Areygedharu", "description": null }, "geometry": { "type": "Point", "coordinates": [ 73.4306967, -0.2961897 ] } },
{ "type": "Feature", "properties": { "Name": "Burevimaage", "description": null }, "geometry": { "type": "Point", "coordinates": [ 73.430627, -0.2963989 ] } },
{ "type": "Feature", "properties": { "Name": "Riyaala", "description": null }, "geometry": { "type": "Point", "coordinates": [ 73.4306967, -0.2965732 ] } },
{ "type": "Feature", "properties": { "Name": "Naagoshi", "description": null }, "geometry": { "type": "Point", "coordinates": [ 73.4305707, -0.2967207 ] } },
{ "type": "Feature", "properties": { "Name": "Arubage", "description": null }, "geometry": { "type": "Point", "coordinates": [ 73.4304339, -0.296761 ] } },
{ "type": "Feature", "properties": { "Name": "Galge", "description": null }, "geometry": { "type": "Point", "coordinates": [ 73.4303829, -0.2969594 ] } },
{ "type": "Feature", "properties": { "Name": "Kilaamaguge", "description": null }, "geometry": { "type": "Point", "coordinates": [ 73.4299859, -0.2971794 ] } },
{ "type": "Feature", "properties": { "Name": "Mainaage", "description": null }, "geometry": { "type": "Point", "coordinates": [ 73.4300289, -0.2969594 ] } },
{ "type": "Feature", "properties": { "Name": "Hudhukaneeruge", "description": null }, "geometry": { "type": "Point", "coordinates": [ 73.4295246, -0.2965732 ] } },
{ "type": "Feature", "properties": { "Name": "Bluemiyaage", "description": null }, "geometry": { "type": "Point", "coordinates": [ 73.4292564, -0.2963425 ] } },
{ "type": "Feature", "properties": { "Name": "Niganboage", "description": null }, "geometry": { "type": "Point", "coordinates": [ 73.4297311, -0.2963211 ] } },
{ "type": "Feature", "properties": { "Name": "Nigaaran", "description": null }, "geometry": { "type": "Point", "coordinates": [ 73.4298679, -0.2962192 ] } },
{ "type": "Feature", "properties": { "Name": "Uraha", "description": null }, "geometry": { "type": "Point", "coordinates": [ 73.4299913, -0.2961762 ] } },
{ "type": "Feature", "properties": { "Name": "Misru", "description": null }, "geometry": { "type": "Point", "coordinates": [ 73.4301496, -0.2966081 ] } },
{ "type": "Feature", "properties": { "Name": "Muskilhige", "description": null }, "geometry": { "type": "Point", "coordinates": [ 73.4300745, -0.2964445 ] } },
{ "type": "Feature", "properties": { "Name": "Seminaa", "description": null }, "geometry": { "type": "Point", "coordinates": [ 73.4304526, -0.2963613 ] } },
{ "type": "Feature", "properties": { "Name": "Andhaleege", "description": null }, "geometry": { "type": "Point", "coordinates": [ 73.4303078, -0.2963023 ] } },
{ "type": "Feature", "properties": { "Name": "Kaazu", "description": null }, "geometry": { "type": "Point", "coordinates": [ 73.4301683, -0.2962862 ] } },
{ "type": "Feature", "properties": { "Name": "Samaana", "description": null }, "geometry": { "type": "Point", "coordinates": [ 73.4304124, -0.2962353 ] } },
{ "type": "Feature", "properties": { "Name": "Naasaa", "description": null }, "geometry": { "type": "Point", "coordinates": [ 73.4305921, -0.2960931 ] } },
{ "type": "Feature", "properties": { "Name": "Ailish", "description": null }, "geometry": { "type": "Point", "coordinates": [ 73.4308013, -0.2960126 ] } },
{ "type": "Feature", "properties": { "Name": "Jargan\n", "description": null }, "geometry": { "type": "Point", "coordinates": [ 73.4306699, -0.2959349 ] } },
{ "type": "Feature", "properties": { "Name": "Moriah", "description": null }, "geometry": { "type": "Point", "coordinates": [ 73.4306136, -0.2958866 ] } },
{ "type": "Feature", "properties": { "Name": "Hanafasge", "description": null }, "geometry": { "type": "Point", "coordinates": [ 73.4304097, -0.2959724 ] } },
{ "type": "Feature", "properties": { "Name": "Gogoresmaage", "description": null }, "geometry": { "type": "Point", "coordinates": [ 73.4301174, -0.2960234 ] } },
{ "type": "Feature", "properties": { "Name": "Finivaadhee", "description": null }, "geometry": { "type": "Point", "coordinates": [ 73.4302354, -0.2958383 ] } },
{ "type": "Feature", "properties": { "Name": "Metro", "description": null }, "geometry": { "type": "Point", "coordinates": [ 73.4301361, -0.2957176 ] } },
{ "type": "Feature", "properties": { "Name": "Fenfinolhu", "description": null }, "geometry": { "type": "Point", "coordinates": [ 73.4300154, -0.2956049 ] } },
{ "type": "Feature", "properties": { "Name": "Meyvaage", "description": null }, "geometry": { "type": "Point", "coordinates": [ 73.4297794, -0.2957686 ] } },
{ "type": "Feature", "properties": { "Name": "Greekuge", "description": null }, "geometry": { "type": "Point", "coordinates": [ 73.429825, -0.2955701 ] } },
{ "type": "Feature", "properties": { "Name": "Maafiyaa", "description": null }, "geometry": { "type": "Point", "coordinates": [ 73.4292161, -0.2957632 ] } },
{ "type": "Feature", "properties": { "Name": "Thandinoomaage", "description": null }, "geometry": { "type": "Point", "coordinates": [ 73.4294683, -0.2958302 ] } },
{ "type": "Feature", "properties": { "Name": "Enboogasdhoshuge", "description": null }, "geometry": { "type": "Point", "coordinates": [ 73.4295353, -0.2954842 ] } },
{ "type": "Feature", "properties": { "Name": "Madheena", "description": null }, "geometry": { "type": "Point", "coordinates": [ 73.4296829, -0.2953475 ] } },
{ "type": "Feature", "properties": { "Name": "Magdhis", "description": null }, "geometry": { "type": "Point", "coordinates": [ 73.4294817, -0.2951892 ] } },
{ "type": "Feature", "properties": { "Name": "Hunuboli", "description": null }, "geometry": { "type": "Point", "coordinates": [ 73.4292752, -0.2953931 ] } },
{ "type": "Feature", "properties": { "Name": "Lucky", "description": null }, "geometry": { "type": "Point", "coordinates": [ 73.4290472, -0.2951651 ] } },
{ "type": "Feature", "properties": { "Name": "Madharusaage", "description": null }, "geometry": { "type": "Point", "coordinates": [ 73.4292886, -0.2950149 ] } },
{ "type": "Feature", "properties": { "Name": "Kanmatheege", "description": null }, "geometry": { "type": "Point", "coordinates": [ 73.4289962, -0.2948217 ] } },
{ "type": "Feature", "properties": { "Name": "Feyz", "description": null }, "geometry": { "type": "Point", "coordinates": [ 73.428854, -0.2948969 ] } },
{ "type": "Feature", "properties": { "Name": "Venusge", "description": null }, "geometry": { "type": "Point", "coordinates": [ 73.4275478, -0.2937596 ] } },
{ "type": "Feature", "properties": { "Name": "Kuri", "description": null }, "geometry": { "type": "Point", "coordinates": [ 73.4275022, -0.2935263 ] } },
{ "type": "Feature", "properties": { "Name": "Narugisge", "description": null }, "geometry": { "type": "Point", "coordinates": [ 73.4277382, -0.2934726 ] } },
{ "type": "Feature", "properties": { "Name": "Huvadhage", "description": null }, "geometry": { "type": "Point", "coordinates": [ 73.4287307, -0.2946608 ] } },
{ "type": "Feature", "properties": { "Name": "Thiburoazuge", "description": null }, "geometry": { "type": "Point", "coordinates": [ 73.4283793, -0.2941244 ] } },
{ "type": "Feature", "properties": { "Name": "Max", "description": null }, "geometry": { "type": "Point", "coordinates": [ 73.4283283, -0.2940573 ] } },
{ "type": "Feature", "properties": { "Name": "Sentuge", "description": null }, "geometry": { "type": "Point", "coordinates": [ 73.4280601, -0.2941995 ] } },
{ "type": "Feature", "properties": { "Name": "Alhivilaage", "description": null }, "geometry": { "type": "Point", "coordinates": [ 73.4281915, -0.2938749 ] } },
{ "type": "Feature", "properties": { "Name": "Elite", "description": null }, "geometry": { "type": "Point", "coordinates": [ 73.4280869, -0.2937355 ] } },
{ "type": "Feature", "properties": { "Name": "Irasmikuge", "description": null }, "geometry": { "type": "Point", "coordinates": [ 73.427926, -0.2938776 ] } },
{ "type": "Feature", "properties": { "Name": "Kanbilifeeshi", "description": null }, "geometry": { "type": "Point", "coordinates": [ 73.4276551, -0.2940386 ] } },
{ "type": "Feature", "properties": { "Name": "Olhugiri", "description": null }, "geometry": { "type": "Point", "coordinates": [ 73.4275371, -0.2941753 ] } },
{ "type": "Feature", "properties": { "Name": "Haveeru", "description": null }, "geometry": { "type": "Point", "coordinates": [ 73.4274888, -0.294465 ] } },
{ "type": "Feature", "properties": { "Name": "Kandhirumaage", "description": null }, "geometry": { "type": "Point", "coordinates": [ 73.4275103, -0.2946581 ] } },
{ "type": "Feature", "properties": { "Name": "Javvu", "description": null }, "geometry": { "type": "Point", "coordinates": [ 73.4279816, -0.2940894 ] } }
]
}
